id,city_id,name,lat,long
9145,291,اپرین,35.586616455720744,51.19927490636081
9146,291,احمد آباد مستوفی,35.629426152073094,51.2065176543195
9134,291,باغ فیض,35.55153412300665,51.25276594707992
9137,291,باغ نرده,35.550961822345656,51.21996810349208
9127,291,بلوار قائمیه,35.52977342789907,51.22221965032165
9132,291,بلوار گلها,35.54625269351317,51.241597238625104
9131,291,بلوار نواب صفوی,35.543441680670355,51.23559313844311
9143,291,بهرام آباد,35.578582353562936,51.27640298092686
9144,291,چیچکلو,35.559377856867854,51.20324418912759
9135,291,حصارک پایین,35.54170298515774,51.19423970260149
9142,291,ده عباس,35.549848336798746,51.28402184498739
9133,291,زرافشان,35.54934897967631,51.2485843027909
9136,291,سالور,35.54333907779561,51.20446282877319
9125,291,شهرک امام حسین,35.52566081102475,51.26366659867193
9141,291,شهرک توحید,35.57351915047748,51.232687646460306
9128,291,شهرک سعیدیه,35.53845668906466,51.216391752764196
9129,291,شهرک محمدیه,35.542370848516555,51.222887605663516
9123,291,شهرک واوان,35.50242259026369,51.21846257348108
9138,291,شهید مطهری,35.55590529532675,51.22872605382145
9126,291,صالحیه,35.506092903513604,51.193379251118586
9139,291,کاشانی,35.558971336174935,51.23275752396452
9140,291,موسی آباد,35.56454081970175,51.24315848010704
9130,291,مهدیه,35.544868847268816,51.22804300373801
9124,291,میان آباد,35.519341114651354,51.243967638031876
9053,292,فاز 1,35.68274874430429,51.01917296615895
9054,292,فاز 2,35.701813589405006,51.002399351366364
9055,292,فاز 3,35.697113169620536,51.02066278366641
9056,292,فاز 4,35.69639174389812,51.036804372793995
9057,292,فاز 5,35.712625160640016,51.03268967606701
9058,292,فاز 6,35.722085725803,51.01681343914376
9150,294,جاده هراز,35.77854167804543,51.96755113247937
9149,294,شهرک مدرس,35.75954418311855,51.96041799712418
9151,294,مرکز شهر,35.76420791400011,51.96582440888366
9147,294,مشا,35.760866865952934,52.02656010467834
9148,294,وسکاره,35.8043729982969,51.913238195339176
9120,297,خیابان حق وردیان,35.7253581054003,51.857839168631614
9115,297,خیابان سپاه,35.73700219400966,51.85713345026414
9117,297,سیاه بند,35.71608048429964,51.8768773498083
9116,297,شهرآباد,35.72195491394504,51.87143305878769
9118,297,شهرک طلاییه,35.71688889926105,51.86695843119614
9122,297,طاهرآباد,35.68934520267756,51.87227825871253
9121,297,گلدره,35.76133077493958,51.867664686898706
9119,297,مرکز شهر,35.73537862429724,51.87917803021958
9076,299,جاجرود,35.668440726605695,51.74719393886025
9067,299,فاز 1,35.74555202966471,51.81775416676294
9070,299,فاز 10,35.752012138137914,51.84688335417235
9062,299,فاز 11,35.77014873805513,51.77604587364738
9066,299,فاز 2,35.747539420813425,51.80193258104677
9068,299,فاز 3,35.74596083513249,51.833026233592506
9069,299,فاز 4,35.73984642013875,51.8443836957384
9064,299,فاز 5,35.75117222259139,51.78547059566813
9072,299,فاز 6,35.72982045818394,51.818316746402644
9071,299,فاز 7,35.73944302983104,51.7672770736462
9073,299,فاز 8,35.725221788539656,51.7589362277798
9065,299,فاز 9,35.75239894468095,51.768906455202824
9074,299,کرشت,35.690045659319466,51.82544613573498
9063,299,کمرد,35.75963789301534,51.74312245576817
9077,299,واصفجان,35.76457149980004,51.82198257770639
9313,301,آبشار,"",""
5262,301,آبشار - منطقه 12,35.6780758,51.4427707
928,301,آپادانا - خرمشهر,35.737336,51.435025
930,301,آجودانیه,35.808025,51.483529
931,301,آذربایجان,35.6915066,51.3981554
932,301,آذری,35.667124,51.35179
933,301,آرژانتین,35.737038,51.415308
934,301,آزادشهر,35.749338,51.173799
10650,301,آزادی,"",""
5196,301,آسمان,35.781369,51.354977
4793,301,آگاهی,35.664541,51.40105
4804,301,آهنگ,35.662167,51.47613
883,301,اباذر,35.732055,51.330142
5364,301,ابوذر - منطقه 14,35.68022,51.485226
4565,301,اتابک,35.649777,51.462364
5448,301,اجاره دار,35.712325,51.44801
7112,301,احتشامیه,35.77788835608,51.459960937
5376,301,احمدآباد مستوفی,35.6342367,51.2134555
888,301,اختیاریه,35.786504,51.460176
5226,301,اراج,35.796068,51.487815
4735,301,ارم,35.730068,51.287098
891,301,ازگل,35.790576,51.509764
4592,301,استادمعین,35.693773,51.34311
894,301,اسکندری,35.689151,51.381385
903,301,افسریه,35.645215,51.490959
3566,301,اقدسیه,35.809142,51.477559
909,301,الهیه,35.7902473,51.4283323
4634,301,امامزاده قاسم,35.812758,51.440023
5304,301,امیر بهادر,35.671572,51.403408
4646,301,امیرآباد,35.732336,51.389944
921,301,امیریه,35.678633,51.401263
9049,301,اندرزگو,35.79850378692217,51.44738255843009
3568,301,انقلاب,35.698418,51.401961
4653,301,اوقاف,35.749039,51.511073
926,301,اوین,35.800471,51.393099
927,301,ایران,35.688245,51.439458
9786,301,ایرانشهر,"",""
4659,301,ایوانک,35.757639,51.351737
938,301,بازار,35.672451,51.426613
3585,301,باغ صبا,35.720913,51.434346
940,301,باغ فردوس,35.803300534,51.4242553710
4667,301,باغ فیض,35.745759,51.322776
4671,301,برق آلستوم,35.723102720,51.3558483123
945,301,بریانک,35.675902,51.37693
952,301,بلوار فردوس شرق,35.7230175,51.3200649
4718,301,بلوار فردوس غرب,35.725158,51.30641
953,301,بلوار کشاورز,35.713899,51.399709
4674,301,بلور سازی,35.665145,51.378779
9783,301,بهار شمالی,"",""
956,301,بهارستان,35.694493,51.429105
9784,301,بهجت آباد,"",""
946,301,بهشت زهرا,35.5347365,51.3627469
4806,301,پاسدار گمنام,35.674177,51.472081
959,301,پاسداران,35.7781887,51.4703438
5316,301,پرستار,35.688111,51.485282
4785,301,پل چوبی,35.704034,51.439351
974,301,پونک,35.765557,51.329813
3571,301,پیروزی,35.695595,51.486075
987,301,تجریش,35.803734,51.427023
5385,301,تسلیحات,35.71644,51.476837
4682,301,تقی آباد,35.575617,51.465372
998,301,توانیر,35.746265,51.40778
999,301,توحید,35.7042168000,51.372499465942
3572,301,تولید دارو,35.66258,51.333144
991,301,تهران نو,35.7088821,51.4966133
6885,301,تهرانپارس شرقی,35.73905818,51.545190
993,301,تهرانپارس غربی,35.736480,51.527938
4685,301,تهرانسر,35.692158133974026,51.25877380371093
7105,301,تهرانویلا,35.72216201529,51.3644313812
4686,301,تیموری,35.673031,51.363041
7993,301,جاده مخصوص کرج,35.70568044469603,51.21860504150390
3573,301,جردن,35.7619899,51.4185926
4687,301,جماران,35.8189267277,51.45738601684
3575,301,جمالزاده جنوبی,35.69656,51.385496
5208,301,جمالزاده شمالی,35.70683,51.38487
6799,301,جمهوری,35.6971988,51.3824156
5214,301,جنت آباد جنوبی,35.743083,51.30631
5211,301,جنت آباد شمالی,35.772601,51.308856
1013,301,جنت آباد مرکزی,35.749977,51.305361
4808,301,جوادیه - منطقه 16,35.654928,51.395073
1016,301,جوادیه - منطقه 4,35.7333496,51.5491819
5367,301,جهاد,35.72506,51.401903
1019,301,جیحون,35.689549,51.360087
4723,301,چهاردیواری,35.784872,51.336314
4688,301,چهارصد دستگاه,35.686888,51.458083
1022,301,چیتگر جنوبی,35.718764,51.158134
5451,301,چیتگر شمالی,35.729002,51.169959
1023,301,چیذر,35.797401,51.454999
7107,301,حبیب الله,35.7169705140,51.35975360870
5283,301,حکمت,35.801412,51.442868
1029,301,حکیمیه,35.737324,51.588821
5394,301,خانی آباد,35.6633675,51.4099655
1163,301,خانی آباد نو,35.625434,51.392909
1036,301,خاوران,35.665839,51.452118
1047,301,خرمشهر - نواب,35.677405,51.383263
4693,301,خزانه بخارایی,35.6391686,51.4230832
4694,301,خلیج فارس,35.665257,51.248575
1045,301,دارآباد,35.81107,51.490081
4696,301,دانشگاه تهران,35.705159,51.397268
1046,301,دبستان,35.738683,51.452517
4697,301,درب دوم - قلندری,35.781526,51.441829
1048,301,دربند,35.820368,51.42654
1049,301,درکه,35.806181,51.382477
1050,301,دروازه شمیران,35.696872,51.442065
1051,301,دروس,35.773052,51.455846
4699,301,دریا,35.773045,51.377139
5370,301,دریاچه شهدای خلیج فارس,35.739832,51.207795
1052,301,دریان نو,35.7077016240,51.36237144470
1053,301,دزاشیب,35.809629,51.454167
4709,301,دولاب,35.6663635,51.4611511
1060,301,دولت آباد,35.618196,51.452188
9048,301,دولت-کلاهدوز,35.78014854046859,51.45878074660803
1057,301,دهکده المپیک,35.76188,51.239542
3608,301,رازی,35.670851,51.388995
4703,301,زرگنده,35.774627,51.433148
1069,301,زعفرانیه,35.808996,51.413988
4704,301,زمزم - زهتابی,35.644751,51.363528
4705,301,زیبادشت,35.753416,51.260267
5412,301,سازمان آب - منطقه 5,35.739469,51.289825
1076,301,سازمان برنامه جنوبی,35.727856,51.299875
5259,301,سازمان برنامه شمالی,35.735921,51.301519
9926,301,سازمان برنامه مرکزی,"",""
4782,301,سبلان,35.721158,51.45631
4698,301,سپهر,35.769286,51.354024
1120,301,ستارخان,35.719096,51.373844
1083,301,سرخه حصار,35.724061,51.547835
1084,301,سعادت آباد,35.791406,51.375478
4710,301,سلسبیل,35.692392,51.375391
1101,301,سوهانک,35.802782,51.533801
7102,301,سهروردی جنوبی,35.7219529680,51.43069267272
7103,301,سهروردی شمالی,35.727353178,51.432151794433
3586,301,سی متری جی,35.676962,51.352097
4711,301,سید خندان,35.749221,51.432106
4713,301,سیزده آبان,35.606271,51.411895
1097,301,شادآباد,35.663756,51.295635
3587,301,شریعتی,35.7885067612717,51.43592834472656
4715,301,شمس آباد,35.7458784,51.4757892
1117,301,شمیران نو,35.753478,51.500945
4728,301,شوش,35.658456,51.43971
7106,301,شهرآرا,35.71968825489,51.373186111450
5256,301,شهران,35.765931,51.289058
1122,301,شهرزیبا,35.750152,51.291776
4679,301,شهرک آپادانا,35.7059592310,51.3279533386
1126,301,شهرک آزادی,35.710223,51.274469
7110,301,شهرک آزمایش,35.7332755684,51.3569641113
907,301,شهرک اکباتان,35.708541,51.303864
4818,301,شهرک راه آهن,35.742783,51.24394
1145,301,شهرک رضویه,35.611604,51.496546
5406,301,شهرک شریعتی,35.626301,51.380597
4726,301,شهرک شهید باقری,35.761777,51.204965
3620,301,شهرک غرب,35.759127,51.373669
1244,301,شهرک گلستان,35.752622,51.233912
4722,301,شهرک محلاتی,35.806553,51.5197
7141,301,شهرک مرتضی گرد,35.6007876853,51.3514709472
5310,301,شهرک نفت - منطقه 1,35.809741,51.508026
9925,301,شهرک نفت منطقه 5,"",""
1150,301,شهرک ولیعصر,35.648579,51.341653
5193,301,شهرک هما,35.745893,51.338493
4729,301,شیخ هادی,35.691611,51.4075
7111,301,صاحبقرانیه,35.809356484137,51.47553920745
3590,301,صادقیه,35.71959,51.341381
1178,301,صد دستگاه,35.689355,51.47345
4730,301,صفا,35.695234,51.452225
3591,301,طالقانی,"",""
1183,301,طرشت,35.706655,51.346874
3592,301,ظفر,35.76634,51.432203
4731,301,عباس آباد - اندیشه,35.728042,51.429882
4732,301,عباسی,35.664342,51.385732
1193,301,عبدل آباد,35.63049,51.366022
5280,301,علم و صنعت,35.741359,51.507975
5298,301,علی آباد جنوبی,35.627224,51.425032
1196,301,فاطمی,35.718557,51.389968
936,301,فتح - صنعتی,35.677564,51.2963
1203,301,فرحزاد,35.787688,51.344731
1204,301,فردوسی,35.694568,51.418293
3595,301,فرمانیه,35.795082,51.47191
4812,301,فلاح,35.657111,51.367429
1210,301,قائم مقام,35.722422,51.420298
4737,301,قبا,35.761311,51.449621
4636,301,قزوین - امامزاده حسن,35.664682,51.366019
4739,301,قصر- حشمتیه,35.726761,51.450458
4740,301,قصرالدشت,35.6918792993,51.3678646087
1213,301,قلهک,35.774006,51.444216
4774,301,قنات کوثر,35.758596,51.530241
1214,301,قیام,35.669066,51.441372
1216,301,قیطریه,35.791102,51.443893
4741,301,کاج,35.714779,51.442366
1230,301,کارون,35.689845,51.366833
1219,301,کاشانک,35.817272,51.479279
4742,301,کاظم آباد,35.749695,51.467645
3597,301,کامرانیه,35.805895,51.467273
5220,301,کرمان,35.733442,51.472835
4657,301,کریمخان,35.708903,51.422002
4790,301,کمیل,35.6832697996,51.3670492172
1234,301,کن,35.759392,51.27734
4596,301,کوهسار - استخر,35.759294,51.551663
4745,301,کوهک,35.730605,51.2349
1240,301,کیانشهر,35.637641,51.449094
4770,301,گاندی,35.750592,51.413066
4749,301,گلاب دره,35.8210842233,51.4346408843
4747,301,گیشا,35.734474,51.376576
4796,301,لشگر,35.72637,51.464081
1248,301,لویزان - شیان,35.77973,51.502833
1252,301,مجیدیه,35.737412,51.46518
1254,301,محمودیه,35.795133,51.412049
3603,301,مرزداران,35.733313,51.349477
9051,301,مروارید شهر,35.75568557734269,51.14027013501865
4753,301,مسعودیه,35.630699,51.497747
5307,301,مسگرآباد,35.627425,51.512458
1260,301,مشیریه,35.625223,51.48111
4780,301,مطهری,35.724374397911625,51.43923282623291
9785,301,مفتح جنوبی,"",""
1269,301,منیریه,35.684239,51.402057
4756,301,مهرآباد جنوبی,35.675004,51.332003
4757,301,مهران - منطقه 4,35.748622,51.456061
5217,301,مهران - منطقه 5,35.732601,51.319526
4689,301,میدان حر,35.686865,51.388504
7081,301,میدان ولیعصر,35.711255987,51.406745910
955,301,میدان هفت تیر,35.710428,51.431163
3609,301,میرداماد,35.762526,51.433308
4677,301,میرزای شیرازی,35.720784,51.412015
887,301,نارمک,35.72711,51.491636
1301,301,نازی آباد,35.642886,51.401706
1334,301,نجات الهی,"",""
1306,301,نظام آباد,35.708436,51.451624
1307,301,نعمت آباد,35.629805,51.352212
1309,301,نیاوران,35.817509,51.469595
4733,301,نیروی دریایی,35.742703,51.488944
1311,301,نیروی هوایی,35.702953,51.474847
1320,301,وحیدیه,35.715245,51.471272
1321,301,وردآورد,35.738248,51.127834
1324,301,ولنجک,35.806109,51.401564
3617,301,ولیعصر - طالقانی,35.707253,51.412639
3618,301,ونک,35.76212,51.397186
1313,301,هاشمی,35.687905799525,51.3667488098
4750,301,هروی,35.772355,51.479702
4761,301,هفت چنار,35.675796,51.369954
1335,301,یاخچی آباد,35.630179,51.4028
5199,301,یافت آباد - بازار مبل,35.661438,51.349956
1336,301,یافت آباد - تهرانیه,35.641422,51.321114
1337,301,یوسف آباد,35.733539,51.404042
10980,304,شهرک صنعتی شمس آباد,35.334089948697276,51.24383805121274
10984,305,جابان,"",""
10985,305,دماوند,"",""
9097,307,ابن بابویه,35.60389362148629,51.446231145052764
9104,307,استخر,35.589552868890934,51.44660521753946
9103,307,اقدسیه شهرری,35.58954000343934,51.43993902723619
9107,307,امین آباد,35.587606896478746,51.45792081088388
9110,307,تقی آباد,35.578894894209725,51.49112134541784
9095,307,جوانمرد قصاب,35.61364830149505,51.427831238076664
9100,307,حمزه آباد,35.59950332771881,51.42423363180319
9096,307,دولت آباد ,35.61854504108457,51.449653614330174
9108,307,دولت آباد قیصریه,35.56757199967436,51.428036232780556
9099,307,دیلمان,35.60274775519876,51.433180575453775
9111,307,زمان آباد,35.538362416822366,51.518412741728724
9102,307,سرتخت,35.59116823258522,51.42926613712217
9106,307,سلمان فارسی,35.580732674776726,51.44277666413831
9109,307,شهرک علائین,35.566788369237,51.4616813503489
9105,307,شهید بهشتی,35.580125208625645,51.41855268496303
9098,307,ظهیرآباد,35.596020718262864,51.451217355637596
9112,307,فیروز آباد,35.48242917993295,51.4922479651957
9101,307,فیروزآباد,35.59591849299834,51.43252448218942
9113,307,قلعه نو,35.49732198552145,51.56067180328577
9082,309,  بلوار لاله صحرا,35.730587454143105,51.89400262751849
9084,309,بلوار مطهری,35.7339133786036,51.91709236716633
9083,309,پاسداران,35.73460156756519,51.903727581456536
9079,309,چناران ,35.67431012028608,51.9325611482428
9081,309,گل اهک,35.71976721602152,51.947417595350004
9085,309,مرکز شهر,35.73319483872639,51.933990316560624
9080,309,مهرآباد,35.70222792729166,51.90759725738752
9093,1116,پرندک,35.48762030543399,51.02990183542278
9094,1116,شهرک صنعتی پرند,35.44595965582151,50.99708328478894
9092,1116,فاز 0,35.47404133788504,50.99069211383855
9091,1116,فاز 1,35.472048082545,50.97725049334642
9090,1116,فاز 2,35.46765217508934,50.96485341887538
9089,1116,فاز 3,35.47517538153788,50.95466733204927
9088,1116,فاز 4,35.484170880285134,50.94567127656762
9087,1116,فاز 5,35.49055257400883,50.93108388679579
9086,1116,فاز 6,35.506013001050206,50.91737194770528
8720,948,اغوزبن,36.58138383937834,52.695064544677734
8719,948,باریک کلا,36.590929084723534,52.64897346496582
8721,948,بالابیشه سر,36.598302581533936,52.715878486633294
8722,948,لنگور,36.607466786918714,52.74205684661865
8723,948,مرکز شهر,36.597751316423285,52.668113708496094
7853,949,امیرآباد,36.6064332843896,52.1739006042480
7854,949,گلسار,36.600507602588,52.135620117187
7855,949,گلستان,36.59471928791016,52.13510513305664
8818,950,اسپوکلا,36.09058636508238,52.78312683105468
8816,950,تیلم,36.04368594522219,52.916507720947266
9781,950,خوردن کلا,36.5699225218239,52.278088656998335
9276,950,زرین آباد علیا,36.51862105508913,53.201047119082624
8815,950,کاکرون,35.992729870593564,52.875308990478516
8819,950,مرکز شهر,36.06450319200308,52.83599853515625
9869,950,مسکون,36.50121326452256,52.27254908173021
8817,950,ممشی,36.094470352720805,52.93006896972656
10914,950,ورکلا,36.67509250271083,53.19724853127613
8814,950,وسیه کش,36.011616617997426,52.763557434082024
9655,951,آب سرفت,36.52044235458191,52.39980310688797
9665,951,آغوزکتی,36.49438837096061,52.30449203384516
9669,951,آهن کتی,36.49976598651288,52.31409433655731
10529,951,آهنگرکلا,36.38842592024597,52.49064795189347
10534,951,اجبارکلا,36.454046462410915,52.45336535188504
10979,951,اسپند,36.40803549533278,52.29204095981123
7243,951,اسپه کلا - رضوانیه,36.465437373619,52.352471351623
9662,951,اسکی محله,36.52962454187981,52.34373721700844
7245,951,امام رضا,36.468370938953,52.364015579223
9667,951,انج پل,36.47009255017899,52.286307681423054
9668,951,انصاری محله,36.48231316668046,52.324099432000594
10517,951,اوجی آباد,36.52399327910683,52.35065623011722
9672,951,باغبان کلا,36.47766204479265,52.47223490920648
10546,951,بامتی,36.5056798893203,52.32591271160421
9720,951,بختیارکتی,36.505641056183435,52.36514371297768
9721,951,بزمینان,36.41933093153348,52.380194772099856
7341,951,بلوار آیت,36.4915939545981,52.35453128814697
7244,951,بلوار بسیج,36.4569121479365,52.3659896850585
7275,951,بلوار جانبازان,36.48852325679,52.35388755798
7254,951,بلوار طالقانی,36.457498934395,52.354359626770
7268,951,بلوار طبرسی,36.47618748572172,52.35195636749267
7255,951,بلوار مطهری ,36.4599840984090,52.3818683624267
7247,951,بلوار منفرد,36.477412524243,52.378349304199
7246,951,بلوار ولایت,36.487902201984,52.335519790649
9723,951,بلیران,36.35560751743338,52.426886613298954
9725,951,بوالقلم,35.976616709077625,52.30080123968971
7286,951,بوران,36.465409118603475,52.40174279353744
10547,951,بیش محله,36.54829463504501,52.35548738274932
10548,951,پاسکی محله,36.440723233261686,52.387968554119084
10518,951,پاشاکلا,36.19837356255287,52.41926916891109
9733,951,پاشاکلابیش محله‎,36.549815401705274,52.35426447782113
10549,951,پلریه,36.10817568064321,52.116455775763846
9814,951,پلک سفلی,36.45818804029584,52.37359874050914
10550,951,پلک علیا,36.44879447849044,52.37669800170807
9817,951,پولیکیاده,36.53323166100467,52.409144295771505
9818,951,پیشگون,36.508251947239344,52.27853900405315
9819,951,تجن جار,36.463928813586804,52.32368184542284
10530,951,تجن‌ جار علیا,36.46250490389545,52.31286299051224
9820,951,تجنک,36.51350790135217,52.2932480976466
10519,951,ترک کلا,36.4309977120129,52.35666080060003
10536,951,تلی گران,36.572648820094095,52.58106879052337
9826,951,تمسک,36.53303639004299,52.376525398759405
9828,951,تیرکان,36.44175803544978,52.39771438598259
10551,951,تیرکلا,36.41864324503413,52.46219654803829
9830,951,جعفر آباد,36.16794362871393,53.34274297836114
9831,951,چالیکیاده,36.43469726118348,52.28855432903058
9835,951,چشمه میانرود,36.53228354370295,52.37123850023218
7248,951,چلاو,36.199681010853,52.434654235839
10535,951,چماز کلا,36.54432866031555,52.12339994522034
9837,951,چنگ میان,36.40860131022078,52.49866442276999
9839,951,چنگاز,36.47782656870361,52.27015968850276
9840,951,حسین آباد,36.52420928117453,52.32592130759881
9842,951,خاص کلا,36.43139444637952,52.34072696586918
9843,951,خرمن کلا,36.4173563697671,52.45289832519085
7253,951,خیابان نور,36.46888861543,52.33925342559
7240,951,خیابان هراز,36.44621114564,52.34736442565
7283,951,دابودشت,36.48231248467,52.46383666992
9845,951,دارکلا,36.50121384035404,52.41052360297302
9846,951,داوود کلا,36.4815357186005,52.55063289662781
10521,951,درازان,36.43000941839343,52.338341305852474
9848,951,درکاپی,36.5057726007413,52.23214747257074
9849,951,درمه کلا,36.44405605275291,52.33253521741278
7269,951,دشت سر,36.348314860643,52.467956542968
10532,951,رشکلا,36.47522099459965,52.41008518734669
9859,951,رودبار,36.5655957537597,52.36314192235836
9860,951,رودباردشت,36.42276597674643,52.362878417470746
9862,951,روکش,36.48707397419843,52.2669624570851
9873,951,زارونده,36.4708877216239,52.30797392712758
9875,951,زاغ ده,36.56208800812103,52.35738566596497
9876,951,زوارک,36.40030515841217,52.438977960010774
9878,951,زیارود,36.39742544267602,52.38167470849886
7270,951,سائیج محله,36.45786118084549,52.28776568172565
9879,951,سالار محله,36.4694265747253,52.418836230464926
10522,951,سرخ کلا,36.42799868637657,52.48483306455253
9881,951,سرهنگ کتی,36.50674433967174,52.30342796865007
9882,951,سعدین کلا,36.53782238305644,52.35880509315765
9883,951,سنگ بست,36.545919241696396,52.37593736528501
9885,951,سوته کلا,36.44127427812345,52.31994147172867
9887,951,سیاه لش,36.50779899880135,52.24691041547801
10528,951,شادمحله,36.455323648597165,52.389850635857535
7267,951,شاه محله,36.49763148853118,52.33105659484863
9890,951,شرم کلا,36.48788181231352,52.38412455181649
10516,951,شهنه کلا,36.39737315934889,52.445426020460744
9891,951,شیخ محله,36.10841616667078,52.129405277003556
9892,951,شیرکاج,36.464622106300304,52.30107908975362
7242,951,طالب آملی,36.48010409015,52.34384536743
9895,951,عالی کلا آهی,36.553272257087066,52.4187276728366
7931,952,اوقاف,36.5542578753363,52.681288719177
9896,951,فیروزکلا علیا,36.370069679388266,51.79894912687267
9897,951,فیروزکلا وسطی,36.446295475270425,52.415989248263834
9909,951,قادی محله,36.51554135170046,52.34216108583691
9913,951,قجر محله,36.49394844325434,52.32334251057749
10523,951,قرق,36.49674254271358,52.35323507620174
9914,951,قلعه‌کش,36.474778574836726,52.46906210898445
10560,951,قلیانکلا,36.47973080133937,52.4883759675582
9915,951,کارچی کلا,36.45434396443311,52.31706608335898
9916,951,کاسب محله,36.4982091509534,52.28425739380517
7278,951,کته پشت,36.440102305619625,52.38997576778631
9918,951,کرد کتی,36.48417140836374,52.31245279589621
9919,951,کلا صفا,36.5173223073367,52.32467485635159
7241,951,کلاکسر,36.499597897962,52.342300415039
9920,951,کلامحله,36.512359627239796,52.34912150958181
9922,951,کلیکان,36.510696721812415,52.363382577215035
7265,951,کمانگرکلا,36.49656186534644,52.38459609545365
10531,951,کمدره,36.39971305429821,52.42966526199975
9923,951,کمکلا,36.411197906510466,52.369379903407406
9924,951,کنسی,36.43828119575119,52.36818005515089
9907,951,کوسه رز,36.53490356977565,52.2590034505865
7276,951,کوکده,36.49113274875948,52.253481004965586
9910,951,کهرود,36.056274555566766,52.248166445572785
9908,951,کهنه دان,36.526946803922094,52.415530354135754
9901,951,گزانه,35.91534045347779,52.21140806684439
9900,951,گلان,36.4828449255314,52.256215920356084
9899,951,گنگرج کلا,36.19568750345935,52.4634570089422
7288,951,لاسم,35.809079363146836,52.20813764604495
9898,951,لتی کلا,36.51938530406953,52.3934170615481
7788,951,لیتکوه,36.435922984119,52.286338806152
9874,951,مارکتی,36.4899120459192,52.303274093999434
9871,951,مرانده,36.49973776017091,52.26425966055205
7988,951,مرکز شهر,36.471563222153215,52.3513126373291
9870,951,مزرس,36.39382697683612,52.46182552317163
9868,951,مطهر سفلی,36.50595655659522,52.50030148157195
9867,951,مطهر علیا,36.50286334001668,52.499192116151974
9866,951,معصوم آباد,36.52970402008464,52.33106253086996
9865,951,معلم کلا,36.41046902765538,52.41145317697183
9863,951,مهدی خیل,36.44031242370106,52.458650594573456
10655,951,میان محله,36.44048600981976,52.39474044885509
9850,951,میخران,36.432256168053144,52.31504246889231
9844,951,میله,36.41909258261673,52.43942120077648
9836,951,نظام آباد,36.43515506712884,52.4695882776214
9834,951,نوآباد,36.58132871755507,52.42582525579596
9822,951,نوده,36.409139357599514,52.46817015233898
9821,951,نوکلا,36.53318263731863,52.36620462344345
9815,951,نوگردن,36.407219128012336,52.33739063094242
9809,951,نیاک,35.87323947778798,52.18915153439961
9806,951,ورامده,36.43912456911809,52.27420056739862
9805,951,ورکاده,36.528323836594126,52.24638011604022
10533,951,وسطی کلا,36.389055845708754,52.504992400081996
7279,951,ولیسده,36.45850014180355,52.27244922427053
9808,951,هاره,35.90935262644036,52.30995246587424
7271,951,هرازپی,36.5215010118659,52.36255645751953
9810,951,هره پاک,36.51493627617114,52.358291638800644
7281,951,هلومسر,36.40816975762348,52.34398096719644
7260,951,هلی کتی,36.504881630784915,52.32112387950913
9807,951,همت آباد,36.54915437910118,52.34881418870441
10520,951,هندیکلا,36.46663414209117,52.433092809246084
10146,952,ُشیخ محله,36.46086331086188,52.599674383190866
9606,952,آری,36.208454763068815,52.67567491501111
9627,952,آهنگرکلا,36.46598021844559,52.61790033294119
9598,952,اجاک,36.39952076459882,52.70521147384945
9592,952,احمدکلا,36.37403817595257,52.65590510425409
9599,952,اخمن,36.352152460244824,52.68144516884617
9603,952,ارچی,36.59398586502204,52.58887093977314
10663,952,ارکا,36.340216323893124,52.65451854477071
10664,952,ازاران,36.28851822868486,52.7082939776988
9609,952,ازارسی,36.36101961818084,52.701244205137186
9611,952,ازرسی بابلکنار,36.362338084695004,52.70140002442929
9616,952,اسب شورپی,36.55861782080172,52.538241076499396
7815,952,اسبوکلا,36.48728114220,52.59086608886
10667,952,اسپی کلارمنت,36.56127122997479,52.730437575592255
9617,952,استردیکلا,36.52522341702816,52.73941273784009
9618,952,اطاق سر,36.30529254498381,52.59482126526382
10668,952,افرابن 2,36.307205327590005,52.656031539180304
9623,952,اکتیج کلا,36.47597152078651,52.579901231065975
10543,952,اله چال,36.431382323420365,52.56962297092849
9625,952,امام زاده رضا,36.32010822795066,52.67290979514444
9624,952,امام زاده عباس,36.34331287283458,52.65510522719782
9626,952,امیرده,36.34882897633027,52.66989731906638
7928,952,امیرکبیر,36.562324277828,52.67540931701
9593,952,انارستان,36.410057534666024,52.71517037243733
9595,952,اندیکلا,36.484278084791825,52.5353336372722
7397,952,ایستگاه آمل,36.5364674480,52.6690149307
9628,952,بابا آباد,36.49101811075579,52.616903488297666
10670,952,بابلکان سفلی,36.49295162258552,52.570441022078924
9629,952,بابلکان علیا,36.487778898584494,52.56782094146839
7345,952,بابلکنار,36.356886571564,52.733688354492
9980,952,بالا کروکلا,36.49712385935339,52.5540460548779
9977,952,بالابازیار,36.413151317311986,52.529177311899716
9986,952,بالابصرا,36.54789548714335,52.592498556081466
9981,952,بالاگنج افروز,36.423143422263614,52.703390415437376
9984,952,بالف‌کلا شرقی,36.345149812248714,52.74954469565964
9985,952,بتلیم,36.23360476627042,52.584614283471836
7987,952,بحر ارم,36.535501958876644,52.67772674560546
9987,952,بصراپایین,36.56365553533514,52.58609185317784
7352,952,بلوار مادر,36.5563607366218,52.662878036499
10671,952,بندارکلاآغوزین,36.582759097018524,52.691068608494604
9995,952,بندبن,36.303482219532576,52.67228062182904
7353,952,بندپی شرقی,36.086840909511,52.742614746093
7390,952,بندپی غربی,36.26974301183,52.59155273437
9998,952,بوله کلا,36.50020148828122,52.62523356034641
9996,952,بهارستان,33.78346156421288,56.88330626780109
9597,952,بیشه محله,36.56900914330217,52.53792968497491
10672,952,پازمین,36.368792921639134,52.575470628371335
10005,952,پایین کروکلا,36.4971360190615,52.554046986094654
10025,952,پشت سیم,36.49747616646967,52.766379417694594
10026,952,پلنگ دره,36.222978918326056,53.00323566812429
10675,952,پولک رودپی,36.332594472032106,52.67237952993233
10039,952,پهناور,36.552197909135614,52.546373632728866
10040,952,پیتکا,36.37036391765845,52.73029625275624
10042,952,تاج الدوله موزیرج,36.58532115390486,52.61657743079293
10043,952,تاری محله,36.477386533528446,52.509906340933796
10045,952,ترجیکلا,36.4597581955247,52.73789120483139
10046,952,تشون,36.343894660671594,52.64249865675616
10069,952,تنها کلا,36.52124807233142,52.506763904829505
10070,952,تیر کلا,36.56876035866275,52.93771866068134
10071,952,تیر کن,36.27148521863848,52.72932867992262
10072,952,جاجن‎,36.297581801561165,52.70834093070488
7833,952,جاده بهنمیر,36.592376275182,52.714462280273
7929,952,جاده قائمشهر,36.5035650632280,52.7511978149414
7365,952,جاده کیاکلا,36.5606696998,52.7312850952
10678,952,چاسرکا,36.32379973400603,52.532182681620604
10083,952,چالرز,36.32107438014986,52.65228127149193
10084,952,چفت سر,36.515637482107984,52.85740254212945
10085,952,چمازین,36.51010525505409,52.58599646088141
10086,952,چناربن,36.47119206869282,52.546159045711676
10679,952,چهارسی,36.25481067069277,52.587359684157775
7411,952,حاجی کلا,36.496906739355914,52.668135137348834
10090,952,حمزه رضا,36.43083440842132,52.547741439595235
7350,952,حمزه کلا,36.5676324763905,52.6754093170166
10681,952,خرجی کلا,36.47904877973628,52.57265025670277
10089,952,خرطوسی,36.299300235481226,52.66722052452613
10088,952,خطیب,36.44237908379364,52.50298087000821
10092,952,خلیل‌کلا,36.22981299270965,52.693104944856465
10682,952,خونکاه زرزمه,36.30641833601142,52.664103946080004
7399,952,خیابان بازار,36.548759139742,52.687618732452
7357,952,خیابان شریعتی,36.558670370776,52.679657936096
7388,952,خیابان کشاورز,36.5268120142293,52.6796150207519
7364,952,خیابان مدرس,36.552706547,52.67678260803
10093,952,دارد کاشت,36.40466109213262,52.73847033842737
10094,952,داوود کلا آستانه سر,36.48152853244044,52.550860354344785
10095,952,درازکش,36.27420912775885,52.661422847217594
10096,952,درزی محله,36.3943200773738,52.71599293353196
10541,952,درونکلاغربی,36.3840984370293,52.71098391403108
10097,952,درویش خاک بالا,36.49669404917915,52.617231030353935
10098,952,درویش‌ خاک پائین,36.50207527087645,52.61942089987476
10099,952,دریکنده,36.508359263617855,52.7573239634751
10100,952,دلاورکلا,36.44665954574651,52.54988186443897
10683,952,دیکنچال و لیسه,36.266414207793986,52.612790974799736
10102,952,رستم‌ کلا,36.350027561347495,52.65557939734298
10103,952,رودبار فیروزجاه,36.34392581910511,52.67514073135571
10104,952,زاهدکلا,36.516120304708274,52.89071552367148
10105,952,زریجا,36.264228944345334,52.583527242662875
10107,952,زریوران,36.36410900495214,52.65148237182833
10108,952,زواره,36.35973690021106,52.65188665622033
10129,952,سادات محله,36.47249802196568,52.608891511550986
10684,952,سرجه کلا,36.212637196265625,52.60251748284001
10131,952,سلیمان‌ کلا,36.563545624425146,52.76849849777572
10132,952,سماکوش محله,36.18565976305271,52.62908121940533
10135,952,سنگچی,36.521322611657524,52.527212309185835
10133,952,سنگرودپی,36.38219219901837,52.60133010147787
10134,952,سنگریزه,36.53859753739456,52.67653505609552
10136,952,سیاه‌ درکا,36.361526081190014,52.74409529471248
10137,952,شاره,36.597149832057276,52.57233210992154
10138,952,شاسبیکلا,36.4465309994207,52.597471998590194
10139,952,شالیکش امیر قلی,36.30077200501805,52.6855229012584
10140,952,شریعت کلا,36.584139426846086,52.55820996344692
10141,952,شمشیر محله,36.58532647536141,52.664430611713506
10142,952,شهربن,36.382128608023216,52.63767757931695
7349,952,شهرک بهزاد,36.5813493778,52.6777267456
10143,952,شهنه پشته,36.343637022914095,52.5334870233007
10144,952,شهید عبدالله,36.56694264631047,52.555160444412614
10145,952,شیاده,36.33225659065564,52.52896054040534
10148,952,صلح دارکلا,36.5476126911281,52.88060902054202
10538,952,صورت,36.38034965559569,52.645647385000146
10149,952,طرقچی کلا,36.4544956712588,52.514433759645115
10540,952,طلوت,36.43405795126025,52.7174234193672
10150,952,عالی زمین,36.45097490501796,52.591112857394336
7362,952,عزیزک,36.633575354954,52.718582153320
10152,952,علی آباد,36.49087546511421,52.50233839617418
10153,952,فلکا,36.32678497017801,52.605670830401856
10154,952,فیروزجاثابت,36.19590170385275,52.65531149309399
10155,952,قائمیه,36.54864214281049,52.49804028987946
10156,952,قران‌ تالار,36.30570501003019,52.776812959151094
10157,952,قصاب امیر,36.45712407561356,52.59955683572498
10158,952,قصاب کلا میانده,36.477444193934254,52.50122066052144
10082,952,قصال ذالکان,36.45673215653975,52.60843269467598
10159,952,قلعه,36.3085398723365,52.653552763407696
10160,952,قمی کلا,36.446866631502004,52.60590794195232
10685,952,قنبرزاده,36.555681551180115,52.8821694915826
10161,952,کاردگر کلا,36.30644160090437,52.7636647928542
10162,952,کاردیکلا,36.36346938976789,52.55357262065931
10081,952,کاسمانکلا,36.435789840608045,52.63358435820921
10080,952,کاشیکلا,36.3578959136139,52.62999959288412
10079,952,کاظم بیکی,36.446555002617046,52.514328023624685
10078,952,کامی کلا,36.359579382701426,52.54251547612042
10077,952,کبودکلا,36.510314457089514,52.77404665414788
10076,952,کپورچال,36.55102803519692,52.775025246181
7347,952,کتی,36.5290880464837,52.70030021667480
10075,952,کرتیج کلا,36.40989355899593,52.62471436926111
10687,952,کردمحله,36.38360182636833,52.6610192592991
10074,952,کرفوکلا,36.58523535548136,52.55789577684342
10073,952,کریکلا,36.36282551247891,52.71811774498437
10688,952,کلاگر سرا,36.22034448272492,52.69523883521365
9450,952,کلاگرسرا,36.4237789896977,52.602774243592606
10689,952,کلاگرکلا,36.36364605963348,52.65600625388981
10035,952,کلمندان نقیب,36.54301769606527,52.76287276110705
10031,952,کلنگا,36.56321309104577,52.57601278986713
10033,952,کلهودشت بالا,36.53901277669204,52.795408154094396
10034,952,کلهودشت پایین,36.542711866949155,52.79571526969287
7957,952,کمربندی امیرکلا,36.5942369087524,52.6820182800293
7346,952,کمربندی شرقی,36.57376747220,52.69145965576
7343,952,کمربندی غربی ,36.574043190905,52.674379348754
10693,952,کمل چو سر,36.266664433328,52.6546587654855
10695,952,کمیون,36.29163221208587,52.58814680085136
10032,952,کنسلو,36.25456939327814,52.62979122460823
10694,952,کیس,36.26926038215956,52.648296898854404
10030,952,گاوزن محله,36.435126905818095,52.700938015578224
7369,952,گتاب,36.42687656098,52.65669822692
10029,952,گردرودبار,36.361416090158016,52.67203805425698
10028,952,گردنبری سفلی,36.553059866953205,52.56134032195858
10027,952,گردنبری علیا,36.54629425038097,52.563270913487294
10024,952,گرمیج,36.49458168441172,52.58162655298792
10692,952,گری محله,36.34031796761024,52.64229071019961
10023,952,گلچوب,36.423552241641595,52.62107151844641
10022,952,گله کلا,36.49997002045906,52.995965230874646
7361,952,گله محله,36.470490028677915,52.54044981990973
7395,952,گنج افروز,36.45553145640271,52.70021438598633
10020,952,گنج کلا بالا,36.32990761132479,52.62655861618553
10021,952,گنج کلا پایین,36.32848068556528,52.62348187447933
7373,952,لاله آباد - زرگرمحله,36.51694843393,52.57404327392
10019,952,لدار,36.32967916137545,52.66828567089873
10018,952,للوک,36.44026712392162,52.52637476299358
10017,952,لمارون,36.258563298370454,52.72248266977317
10015,952,لمسوکلا,36.35614097953762,52.5724851608115
10542,952,لنگور,36.61392703471328,52.744326222854454
10014,952,لیاردن,36.362972145124715,52.685087669599724
10012,952,متکه,36.50567033365886,52.562812769495125
10011,952,محمودآباد,36.55381371771382,52.71753863242868
10690,952,مرتع بلکرون,36.301017780119054,52.68583557737568
10010,952,مرزناک دشت,36.394367105277475,52.68755438709211
10008,952,مزداکتی,36.38492854699998,52.665812923551975
10007,952,مشهدی کلا,36.594977185833855,52.65084302923088
10006,952,مصیر محله,36.46862621061232,52.52334761230296
10002,952,مظفرکلا,36.45428274449313,52.50558507355589
10001,952,معلم کلا,36.42935706773409,52.60454133405408
9999,952,ممرزکن,36.26476148176656,52.700357855563006
10696,952,منسکلا,36.50437927796517,52.57520324714206
9997,952,منصورکنده,36.5396398982183,52.72080571341614
10698,952,موزی کتی پارک,36.32666137071907,52.70761505854626
9994,952,موزی گله,36.55264732136991,52.75848444671016
7342,952,موزیرج,36.53819150576,52.65283584594
9993,952,مومن آباد,36.45916220943481,60.28558458837604
7415,952,مهدی آباد,36.557124244753396,52.666936695965774
9992,952,میان دره,36.77771441068166,54.22465630660118
9991,952,میاندسته,36.534273379531996,52.55637783137975
9990,952,میانرود,36.58045407538146,52.64262244615928
7354,952,میدان کشوری,36.5379846208,52.6900005340
10700,952,میرکتی,36.36418425084959,52.61435423657829
10701,952,میرملک,36.26643923683972,52.655023413202045
9989,952,ناریوران غربی,36.35846312105472,52.64484135425906
9613,952,نجارکلا,36.4971261583598,52.655432877981426
9612,952,نرگس کتی,36.56484323024927,52.83531460467938
10702,952,نسیه,36.280520738500854,52.676866765138215
7363,952,نقیب کلا,36.548867377145584,52.67770594829671
9610,952,نمودارکلا,36.55917829906641,52.55406825572732
9607,952,نوایی کلا,36.47874401667513,52.52186131848575
9605,952,نوشیروان کلا,36.46036586534444,52.612191537338205
10713,952,نی کلا,36.57821674508603,52.616205050059726
10714,952,وتیله,36.208321513473365,52.66095098951393
9600,952,ورخامن,36.27750754673773,52.67768576940391
9596,952,ورمتون,36.492110297311704,52.564932246622966
10715,952,ولی عصر,36.55230151767154,52.72251288198765
9594,952,ولیک,36.34827045101416,52.63835905935126
10712,952,وولی کتی,36.338502254017506,52.67943485482686
10707,952,وولی گله,36.31784831702537,52.637741961405496
9591,952,ویشگون,36.278343383710535,52.609377024269136
10703,952,هشتری,36.302320444773216,52.64980769072858
9604,952,هلال کلا,36.51188369597669,52.53518893042249
10704,952,هلی بن,36.29065114387691,52.62510293435531
10710,952,هلی خان,36.33824275858743,52.71859032675429
10711,952,هلی کتی,36.295482451080495,52.6958850967516
9601,952,هلیدشت,36.41689298122298,52.73648277464138
10706,952,هندوری,36.30439612576698,52.589254867753596
7292,953,اجاکسر,36.68776199358,52.61309623718
10164,953,اسفندیارمحله,36.65444447314421,52.60957726350332
7301,953,امیرمازندرانی,36.70820116582,52.66214847564
10716,953,اناری,36.676756476892905,52.636409204454075
7316,953,اوکسر,36.70345315587992,52.72802352905273
10166,953,ایسی کلا,36.61561487866052,52.63726185869436
7300,953,باقرتنگه,36.707169014703126,52.710599899291985
10167,953,بالا نقیب کلا,36.61409471872679,52.62891511663241
7318,953,بلوار بسیج,36.69815430571,52.65935897827
7332,953,بلوار ذوالفقاری,36.7070657988,52.6778984069
7312,953,بلوار ساحلی,36.70644650066,52.62635707855
9948,953,بلوار طالقانی,"",""
7310,953,بهشتی,36.70176719772208,52.66047477722167
10170,953,پایین نقیب کلا,36.548822590832586,52.67794308354224
7334,953,تازه آباد,36.68259972707361,52.72785186767578
10171,953,چوپان کلا,36.61324333277242,52.642394300693525
7323,953,خزرشهر,36.69244214905,52.56846427917
7311,953,خیابان امام خمینی,36.69227008955,52.65678405761
7293,953,خیابان پاسداران,36.6967091013,52.631764411
7324,953,خیابان شهید طالبی,36.69344008653464,52.63747215270996
9950,953,خیابان فلسطین,"",""
7978,953,خیابان محبوبی,36.701388712236444,52.637386322021484
10173,953,رزکنار,36.607685957767416,52.5914679054898
10174,953,رضا کلا,36.607924109165175,52.633013844346706
10175,953,رکون‎,36.59146052439094,52.61698350112529
7314,953,رودبست پازوار,36.611945137847,52.640991210937
7308,953,رودبست خشکرود ,36.6436995170934,52.6087188720703
7336,953,ساحلی,36.715838653246,52.711286544799
10717,953,سپاه محله,36.614489069938564,52.655021276813386
10177,953,شرمه کلا,36.621494890414304,52.56425850123939
7297,953,شریعتی,36.70525949858,52.643265724182
7313,953,شهرک آزادگان,36.69787903078789,52.609190940856934
7958,953,شهرک دریاکنار,36.69708760988941,52.59090900421142
7296,953,شهرک صفاییه,36.6875899236,52.5915098190
7315,953,شهرک قائم,36.70021883622523,52.63077735900879
9949,953,شهید شریفی,"",""
7302,953,علی آباد,36.672480679633,52.649059295654
10182,953,علی آباد میر,36.71701954498287,52.69503567066851
10178,953,کاریکلا,36.61774024991941,52.608631352149025
10181,953,کونر,36.61482999316057,52.57411305969296
7959,953,کوی چمران,36.70624006684068,52.66000270843506
10719,953,مجتمع مکانهای مسکونی نیروی هوایی,36.71360038958026,52.72466655555149
7325,953,مرکز شهر,36.7008209805,52.6484155654
10184,953,میان‌ بال,36.60822606815383,52.56924733145548
7298,953,میرود,36.71755870332129,52.73506164550781
7294,953,نخست وزیری,36.70892366336142,52.66811370849609
10169,953,ولیکرودپشت,36.61061618306894,52.55984386655697
9516,954,انگرود,36.15139767463915,51.658013925948474
9031,954,اوز,36.20051215333818,51.646728515625
9022,954,ایل,36.194416903538226,51.946964263916016
9521,954,بردون,36.142232736194124,51.76848266181895
9024,954,بطاهر کلا,36.097799332209796,51.76740646362305
9524,954,پیل,36.230375398742474,51.567088356511874
9021,954,تاکر,36.19566369778361,52.05219268798828
9527,954,تترستاق,36.212778982529244,52.18324664356447
10720,954,تشکون,36.74275556525358,50.88422177636073
10721,954,توسکاکتی,36.68854963223279,50.84017045998417
9531,954,چلرود,36.17791923880002,51.864718286733684
9026,954,خجیرکلا,36.151875479436356,51.715736389160156
9534,954,دونای سفلی,36.197356493305726,51.364340365452925
9533,954,دونای علیا,36.19678020765445,51.37181262424912
9535,954,دویلات,36.200191882285544,51.86567193997533
9538,954,رزن,36.204512780303695,52.184572270214886
9540,954,زرین کمر,36.20780581943051,51.827986813095045
9519,954,سادات محله,36.18676054777378,51.85923176357694
9518,954,سراسب,36.13894357229411,51.79521798716018
10722,954,سنگرده,36.77946253884225,50.83768522182162
10420,954,شیرج محله بزرگ,36.772801503717496,50.91714297602288
10422,954,شیروان محله,36.77119976827641,50.847384763853256
10423,954,صادق اباد‎,36.697206918904804,50.86144262704182
10426,954,عزیز آباد‎,36.73939431363347,50.913908373648354
9515,954,کام,36.159632643932696,51.7208219104129
10734,954,کرات کله,36.79039161604957,50.864155056705286
9020,954,کرسی,36.195940760475345,52.169952392578125
10738,954,کرف,36.80168326996219,50.873034070659266
9512,954,کلاک سفلی,36.208067682297965,51.56902525892616
9509,954,کلاک علیا,36.19774404999056,51.55911515987141
9507,954,کلاونگاه,36.19049262530145,51.43823050454167
9029,954,کمربن,36.20993115142725,51.427345275878906
9505,954,کمرود,36.15180361036979,51.779678655609715
10744,954,کنارور,36.76414238722739,50.89143139527103
10747,954,گاوپل,36.72301927425688,50.84838847251335
9033,954,مرکز شهر,36.19891912249101,51.80525779724121
9025,954,مزید,36.18499603869524,51.86267852783203
10749,954,منصورآباد,36.79781013702931,50.889246779053295
10750,954,مهدی آباد,36.73768727354561,50.83508375731112
9030,954,میناک,36.198157226713704,51.52742385864258
9032,954,ناحیه,36.156102940754565,51.612653732299805
9493,954,نج,36.17494166536348,52.00214589017474
9492,954,نسن,36.23537593412684,51.497248845886865
9494,954,نیکنام ده,36.20468669561422,51.642470590154375
9028,954,ورازان,36.250364551134425,51.833152770996094
9468,954,ولاشید,36.20272680642944,51.92403679568038
9023,954,یالرود,36.09752192263873,51.86594009399414
9027,954,یوش,36.18984515478542,51.75436019897461
7955,955,آزادی,36.68562181779113,53.554383635541875
7954,955,ابوعمار,36.69010210692633,53.56538772583008
10199,955,ارضت,36.60031964803953,53.97215905216362
10200,955,استارم,36.561889816104916,53.9034131839738
10201,955,الارز,36.56397016464223,53.941261707446365
7554,955,التپه,36.6874522673669,53.5898923873901
7556,955,امام ده,36.74108512094412,53.58959197998047
10202,955,اندرات,36.596542467462996,53.93568002228706
7557,955,ایستگاه گرگان,36.68332246524438,53.57075214385986
10203,955,برماعشرستاق,36.52052444582097,53.77582071316687
9549,955,بلوار هاشمی نژاد,36.69166357430792,53.51472614493383
10204,955,بندسر,36.57938888154666,53.846432683963634
10205,955,بیشه بنه,36.56922651365416,53.81348129816236
10206,955,پابند,36.48890266464667,53.95875507353476
10208,955,پارچ,36.54012360689849,53.762561474689576
10209,955,پارسا,36.60367329550197,53.961712452279606
10210,955,پارم,36.58087463443392,53.760024123713826
10211,955,پجیم,36.61773156355494,53.72382300645255
10212,955,پچت,36.57870007933122,53.74271672286769
10214,955,پرکلا,36.54774415683284,53.712145386173056
10215,955,پیته نو,36.582917204025584,53.95306348053817
7925,955,جاده دریا چهار فصل,36.76089124956562,53.54736328124999
10216,955,جوربند,36.516251085208864,53.77125358852653
10217,955,چالک ده,36.5751415637007,53.65603569599179
7564,955,چهل تن,36.70114785686613,53.52367401123046
7568,955,خنک جام,36.68652308122401,53.51646423339844
7553,955,خیابان امام خمینی,36.695504743649906,53.54268550872803
7950,955,خیابان باهنر,36.69435198359682,53.53736400604248
7953,955,خیابان فرودگاه,36.69454124389593,53.53298664093017
7917,955,خیابان قائم,36.69619295036718,53.56032371520996
10978,955,زاغمرز,36.803785912579386,53.3028958493409
10218,955,زلت,36.61333660248241,53.709664258832035
10219,955,سابق محله,36.51195576019325,53.81788827860878
10220,955,سرخ گریوه,36.56223805681365,54.05184387801818
10221,955,سفید چاه,36.600026933135915,53.88579942881434
10222,955,سمچول,36.53922064608811,53.72449318393886
7561,955,سنگ ذغال,36.70668733943542,53.54341506958007
10223,955,سنگروج,36.532687293081096,53.979976816315336
7571,955,شهرک صنعتی,36.74163536021999,53.53500366210937
9548,955,شهید رجایی,36.69605776716321,53.54621843726348
7562,955,شهیدآباد,36.672549521187506,53.485565185546875
10224,955,شیرداری,36.58339247822751,53.65045164946336
10225,955,شیلر,36.54672069592901,53.81078840414356
10226,955,عبدالهی,36.59190908458136,54.03592259692319
10241,955,عسگر آباد,36.76377057942284,53.33466949987822
10242,955,عیدین,36.49694720363367,53.823238846891755
10243,955,غلامی,36.52406165507671,53.912739103744485
10244,955,فتکش,36.57379750678528,53.88847591863351
7919,955,فراش محله,36.68590361755837,53.53923082351684
10505,955,فرهنگیان,36.699496968157014,53.54346979559498
10245,955,کلا,36.48119957809086,53.838200455392844
10247,955,کلیا,36.561014381810544,54.01763492029647
10248,955,کوا,36.52333738706805,53.876856494933854
10198,955,کیاسر,36.58171902671658,53.837680162835966
10197,955,گالش محمله,36.56516247650673,53.69146598499238
10196,955,گت چشمه,36.54001777244982,53.95811636497417
7951,955,گراییل محله,36.6941283117335,53.5184383392334
7576,955,گرجی محله,36.68153281545716,53.55500221252441
10195,955,گرنام,36.57504637005445,53.79360601543753
9547,955,گلستان,"",""
10194,955,لله مرز,36.754391602978245,53.39113691201712
10193,955,لمرد,36.519909210764204,53.78595670864083
10192,955,لند,36.48751906889647,53.92348994793608
10191,955,لوجنده,36.5020931708739,53.75117261552913
10190,955,متکازین,36.5659454093203,53.77840252341949
10189,955,محمدآباد,36.601944224942685,53.59892936773369
7922,955,مرکز شهر,36.69388743361472,53.54028224945068
7918,955,مفتح,36.69767257394769,53.54920864105224
9546,955,مهدیه,36.69662349017051,53.53607108952044
7921,955,میانکاله,36.76419177390199,53.37158203124999
7578,955,نقاش محله,36.690790362003206,53.549723625183105
10188,955,نمک چال,36.83426661104775,53.37272702599466
10187,955,ولم,36.590956658892054,53.64139014266908
10186,955,ولو,36.51001603516592,53.71971185538979
7923,955,یانه سر,36.532812318439724,53.903045654296875
10185,955,یخکش,36.620391607053755,53.74294127108542
10163,956,ازنوا,36.70112275126035,52.8081984039805
10165,956,افراتخت,36.70821224516221,52.77341511295342
10168,956,پارو محله منگلاب,36.653910586896515,52.76510143664997
8803,956,جاده بابل-بهنمیر,36.64445705395264,52.731971740722656
10172,956,داراب دین روشن,36.68112005453264,52.770492429065186
10176,956,روشندان,36.671952863097054,52.78809760644365
8802,956,سرخ دشت,36.64066929515439,52.78389930725098
10718,956,شهیدسرا,36.71604107462894,52.75773233745923
8801,956,عربخیل,36.69980593455846,52.7497386932373
10179,956,کرفون,36.721973199634725,52.81361268845506
10180,956,کریم‌ کلا,36.6813154395994,52.74859436541055
8804,956,مرکز شهر,36.6640126988417,52.7647590637207
10183,956,منگلاب‎,36.65604493277805,52.76017751627803
8799,956,نفت چال,36.72416333771033,52.79823303222656
8800,956,هلی باغ,36.6843893520368,52.797889709472656
8811,957,ازان ده,36.08954597865897,53.10035705566406
8812,957,اساس,36.14439023489635,53.05366516113281
8810,957,انارم,36.03771731908686,53.10413360595703
8806,957,اوریم ,35.937154401686215,52.99083709716797
8809,957,برنت,35.96189031553499,53.112030029296875
8807,957,سیمت,36.00397913994169,53.009204864501946
8808,957,شورمست,36.07990440942662,53.03306579589844
8813,957,مرکز شهر,36.11936492793423,53.055381774902344
8805,957,ورسک,35.8876593461709,52.9705810546875
9930,958,آخوندمحله,36.7869903143179,50.8057058076487
9933,958,آقامقیم محله,36.80266902818996,50.81064768226483
9937,958,آهکچال,36.808040370325976,50.7503569044339
9929,958,احمدسرا,36.83917148176428,50.76205018487192
8043,958,امین آباد,36.76061619945948,50.94497680664062
9938,958,ایثارده,36.78835854693647,50.776522571075375
9939,958,باغ نظر,36.7765673464674,50.95014278911289
9941,958,بالابند,36.79241185488014,50.71941380635018
7916,958,بلده,36.6987048526039,50.8502197265625
7909,958,بلوار شیرودی ,36.82955412080588,50.86077690124512
9974,958,پرچین پشته,36.734488677011434,50.86029685211879
7586,958,پسکلایه بزرگ,36.79615824953446,50.88146209716797
9946,958,پشت جوب,36.85045331835993,50.75775853243058
9975,958,پلت کله,36.76574344217373,50.97810627740446
9976,958,پلطان,36.74714528806023,50.813741420978005
10396,958,تقی آباد,36.75747687546085,50.8218255695844
10397,958,تلوسرمحله,36.826616497276135,50.76788659440755
7914,958,تمشکل,36.69705320010033,51.01020812988281
10398,958,تودارک,36.818817419166834,50.72731057065764
10754,958,توکله,36.82293414190416,50.7865740826215
7587,958,جاده دو هزار,36.61111838494165,50.71975708007812
7906,958,جاده سه هزار,36.518465989675875,50.821380615234375
10401,958,جل چلاسر,36.7885995991095,50.78454666160951
10402,958,جلیل آباد,36.76216413116159,50.808716856095316
10403,958,چلاسر,36.80285796763114,50.79101823525774
7935,958,چناربن,36.81464459582775,50.84378242492675
10404,958,حاتم سرا,36.78763864496919,50.77667994185729
10405,958,خشکرود,36.80162996745903,50.7782398962262
10406,958,خلخال محله جدید,36.81121805435756,50.831048357041105
10407,958,خلخال محله قدیم,36.805629647354635,50.82918833424802
7934,958,خوبان رزگاه,36.81041855703606,50.85073471069336
7910,958,خیابان جمهوری,36.81265185863529,50.88652610778808
7907,958,خیابان فردوسی شرقی,36.80662179480161,50.88433742523193
7908,958,خیابان فردوسی غربی,36.82096603945592,50.86403846740723
8044,958,خیابان کشاورز,36.81248006851758,50.8677291870117
10411,958,درویش سرا,36.82669382482165,50.75361731335513
10781,958,دیزپشت,36.69522114744508,50.972102945772924
10412,958,رضا محله,36.81556395786908,50.871647066361454
10413,958,رودباری کنار,36.81207724663604,50.807014712862994
7591,958,زنگیشاه محله,36.79663936342829,50.83768844604491
9684,958,زوار,36.75893055252555,50.974789978248836
7592,958,ساحل طلایی,36.80248121957411,50.90158939361572
10785,958,سرفقیه آباد,36.72582060436192,51.05115476966793
10417,958,سلیم آباد,36.77943546664625,50.79482311010739
7593,958,سلیمان آباد,36.77862989771072,50.77554702758788
7912,958,سیاورز,36.746449785615994,50.871334075927734
10755,958,شبخسکول,36.832882479539194,50.744461809442136
10418,958,شعیب کلایه,36.81780494115674,50.7786691103751
10419,958,شهرک اسلام آباد,36.79201287060248,50.92226305983555
10421,958,شیر محله کوچک ,36.77974341786389,50.85300765402849
10424,958,صالح آباد,36.773357157379806,52.97817641241759
10756,958,طاهرک محله,36.846731572524824,50.810948942358756
10425,958,عبدالله آباد,36.59749338150091,52.380162115236885
10757,958,عظیمیه,36.814743833377484,50.754389021415186
10768,958,علی آباد,36.71431410030326,50.998649534575854
10428,958,قلعه سر,36.30962183837066,53.82968177403734
7588,958,قلعه گردن,36.75937846177561,50.84489822387695
10429,958,قنبرآباد,36.81535744540241,50.871039884118225
10430,958,کار کوه,36.808614122974,50.76715705895339
10433,958,کبود کلایه,36.78305091205658,50.81953779359185
7913,958,کترا,36.71769630566352,50.96488952636719
10434,958,کرات چال,36.75105142274928,50.79844265056226
7601,958,کریم آباد,36.83298908345056,50.84652900695801
7933,958,کشکو,36.77326748341029,50.82043647766112
10443,958,کندسر,36.815026678920006,50.78716898756741
10786,958,کوه سار,36.69154372318183,50.97532732366199
10445,958,کوهسر,36.672658186792,51.02823077360366
7936,958,گراکو,36.81952314722217,50.83867549896239
9970,958,گرماپشته,36.7386243745134,50.85907929260478
9969,958,گلستان محله,36.65723274236093,50.763246294555394
7603,958,گلیجان,36.80584867534775,50.82245349884033
9968,958,گیل محله,36.77964439585275,50.90401106982373
7915,958,لزربن,36.83017242546416,50.78413009643555
7604,958,لشتو,36.82501973396098,50.74851036071777
7911,958,لشگرک,36.77450499692835,50.89802742004394
10784,958,مازندران محله,36.74489690581879,50.98475187040274
10787,958,مازولنگاسر,36.818716652126945,50.78586788111809
9967,958,مران,36.445518934079075,50.83856564947129
8046,958,مرکز شهر,36.813201584421336,50.87468147277831
9965,958,ملا حاجی محله,36.789667642791024,50.81501326703219
9964,958,ملاعظیم  رزگاه,36.78283136918609,50.83490336715298
10758,958,میانرود,36.80461039011942,50.78420663655793
9963,958,میانسرا,36.744148972202105,50.8746062579092
10788,958,میانکوه حسین آباد,36.63554368169886,50.74199549082525
9962,958,میانکوه سادات,36.6299576653012,50.726902766204695
9961,958,میانکوه محله,36.629440287887206,50.726727866703385
9960,958,نرس,36.6152498094416,50.73024596070188
9959,958,نصیرآباد,36.826256305821,50.83324671479586
7607,958,نعمت آباد,36.74947584127597,50.92042922973633
9958,958,نورالدین محله,36.855093400448254,50.76021076536461
9954,958,واپشته,36.69779358532339,50.858307892451045
9953,958,ولمرود,36.74486469971389,50.850468908474184
7608,958,ولی آباد,36.78041728578199,50.93708038330078
9957,958,هاله کله,36.834251031176805,50.793020473716595
9956,958,هراتبر,36.7493428120766,50.79592010710089
9955,958,همش بور,36.75932393652901,50.92087505396462
9952,958,یاندشت بالا,36.63988333156828,50.840690053522486
10249,959,آباده,36.6908077407126,52.954762014085574
10251,959,آزاد بن,36.66315192378948,52.96381109509991
8772,959,آستانه سر,36.646729619827646,52.8731632232666
10252,959,ازان,36.56994604647877,52.91729094782643
10859,959,اسماعیل کلا بزرگ,36.646613968124285,52.82051149477018
10253,959,اسماعیل کلا کوچک,36.595079463241746,52.88337616464256
10257,959,امامزاده محمود,36.7510114526967,52.93411689519352
10265,959,انبارسر,36.73199272030372,52.85061509985894
10264,959,ایزدخیل,36.704496830149886,52.94291142950285
10263,959,بالازرین کلا‎,36.71071094774088,52.97218038400084
8771,959,بیزکی,36.60209242254429,52.863807678222656
10262,959,بیکار آیش,36.69300964834061,52.87633892611266
10260,959,پایین ذغال منزل,36.672661254063534,52.86127572605261
10258,959,پهناب,36.66209339651738,52.954369716549685
10370,959,تلنار,36.74268371931441,52.90086861588241
9046,959,جاده جویبار-بهنمیر,36.646901781176744,52.82981872558593
9045,959,جاده قائمشهر - جویبار,36.60819023044913,52.90740966796875
10708,959,چپکرود,36.75068146870984,52.8790999111041
10369,959,چرخ کتی,36.705646268645694,52.91547281231986
10368,959,چلمیان,36.62007138307294,52.87130584666042
10366,959,چوباغ,36.755954730101884,52.9745353468199
10367,959,چهار طاقبن,36.625504923023676,52.97011874343602
10365,959,حاجی کلا ,36.57820677172373,52.93018611707609
8774,959,درکاسر,36.6372945895241,52.94474601745605
10364,959,درویش محمد شاه,36.64412747680969,52.93752419693728
10363,959,دیو کلا الیمون,36.58191682968375,52.90211405888897
10255,959,دیوکلا الیمون,36.5804099147064,52.900693363005544
10362,959,رنگریز محله,36.70644427262134,52.93534622803423
10361,959,زیارمحله,36.69825303522688,52.94968595929544
8773,959,سراج محله,36.61359861706874,52.94212818145751
8770,959,سروکلا,36.57797207548345,52.91007041931152
10279,959,سید زین العابدین,36.66785942934482,52.89363325486375
10281,959,سیدکلا,36.58393496323348,52.918819771388506
10278,959,شاهرضا محله,36.68257149074363,52.97953930287701
8776,959,شورکا,36.66628468758584,52.920541763305664
10865,959,شهنه کلا,36.66518759112093,52.81088866039569
10277,959,شیب آببندان,36.594861611657606,52.91788126322371
10276,959,صفرخیل,36.60597675645593,52.94185998385746
8777,959,طالش محله,36.67110383562481,52.9731559753418
10275,959,علی آباد ,36.69907497485351,52.92380048151318
10274,959,فوتم علیا,36.60179090090992,52.86732674999265
10273,959,قادی محله,36.63438059440349,52.9367691506395
10272,959,کردخیل,36.691928264307094,52.945376107982874
10867,959,کفشگرکلا,36.57471297501311,52.90187744854737
10271,959,کله بن,36.58122007019159,52.877184239951085
10268,959,کوکنده,36.625734151782574,52.84475805459344
9044,959,کیا محله,36.67158573383034,52.94766426086426
8775,959,لاریم,36.72677751526221,52.948265075683594
10267,959,لاک دشت,36.70133166221139,52.86720976451174
10266,959,لپو صحرا,36.71801630311131,52.83329546997047
10261,959,ماندی محله,36.659489366773116,52.95602068573244
10259,959,محله کلا,36.61969800873104,52.92151369101968
8778,959,مرکز شهر,36.63911970378168,52.905564308166504
10256,959,مشک آباد پایین,36.684890961160626,52.948351761956744
10868,959,میان ملک,36.73275501763209,52.8694714027608
10254,959,میانده,36.65599077042259,52.84687561056381
10250,959,میستان,36.67713910023054,52.82812404975584
10871,959,نفت چال,36.73541972660172,52.84261825275147
7975,960,17 شهریور,36.647728150295286,51.43107891082763
7421,960,آیت الله غفاری,36.6551306448001,51.4383316040039
7823,960,اشکاردشت,36.64225328967397,51.43871784210205
9410,960,اکبر آباد,36.67683353749866,51.393485894754505
7423,960,امامرود,36.6869360542291,51.3632297515869
9413,960,اوجا کله,36.66081065929174,51.35593065406296
7426,960,بلوار امام رضا,36.67020887380782,51.40811920166015
7428,960,پالوجده,36.649070981201575,51.444854736328125
9423,960,پیچده,36.15236929257927,51.63588167343447
7429,960,تازه آباد,36.66236030126654,51.38983726501465
7430,960,تجن کلا - زوات,36.61208292913684,51.360740661621094
7431,960,چاخانی,36.66649122869145,51.33387565612793
7825,960,خط هشت,36.68349454476027,51.41009330749512
7839,960,خیابان کوروش,36.64679848441346,51.42030715942383
8544,960,دارکلاه,36.642735368497526,51.409664154052734
7826,960,دوجمان,36.68595523972107,51.37597560882568
7436,960,دوستگر,36.65822915213626,51.40833377838135
7437,960,رادیو دریا,36.67571616607861,51.43202304840088
7979,960,سردآبرود,36.6857315434324,51.393399238586426
7441,960,سیبده,36.667661617819896,51.37653350830078
7442,960,سینوا,36.619385515132834,51.39198303222656
9833,960,شهرک شفیعیان,36.66461744343056,51.405950262259466
9443,960,طلاجو,36.62242915236216,51.38227810587617
7445,960,عباس کلا,36.68259972707361,51.38537406921386
7447,960,فرج آباد,36.66896967872380,51.44451141357422
9439,960,کریم آباد,36.658571789970736,51.374330173244495
7449,960,گلسرخی,36.66807469208623,51.42172336578368
9433,960,گیل کلا,36.67390283748457,51.38626055036045
9832,960,محوطه کاخ,36.64899911810491,51.42140650921178
7425,960,مرکز شهر,36.6587111309584,51.4229679107666
9425,960,مهدی آباد,36.665220504701956,51.38985079941443
9422,960,میانده,36.681837766748224,51.39245180518999
9420,960,نجارکلا,36.66754059422807,51.38861631414865
7454,960,نعمت آباد,51.359195709228516,51.359195709228516
7457,960,نمک آبرود,36.66952043455806,51.29928588867187
7455,960,نورسر,36.68631659388985,51.32692337036133
7525,961,آپادانا,36.523432327638204,52.140083312988274
7493,961,آهودشت,36.518052113789814,52.166175842285156
7496,961,امیرآباد,36.459190235228355,52.23432540893555
7501,961,باریکلا,36.44227556709968,52.196044921875
9522,961,بلویج,36.47378831958741,52.17018843495203
9523,961,به بنک,36.37835850468576,52.01471482519951
7504,961,بهدشت,36.51142979855865,52.1934700012207
7513,961,جاده واز,36.30405876804296,52.16514587402344
7516,961,خطیب کلا,36.46146825559843,52.16789245605469
9537,961,دیزین کلا,36.38941187075296,52.039400191103205
7519,961,سعادت آباد,36.41465185677695,52.20943450927734
7522,961,سنگین ده,36.52419104564389,52.11373329162598
9517,961,شیخ علی کلا,36.506677882974074,52.107213934299764
7546,961,شیرکلا,36.51170573967381,52.21561431884765
9514,961,کچلده,36.45169720748828,52.234448066675675
7541,961,کرات کتی,36.49540605778269,52.15010410954708
9513,961,کرچی,36.38936444456351,52.02238209236419
7539,961,کردآباد,36.4934915159800,52.0942497253418
7540,961,کنسپا,36.46293487844704,52.22112898787265
7538,961,کیابسر,36.46138510827145,52.211096294617306
9503,961,کیاکلا,36.36985651482989,52.03855733464122
7537,961,گیلان ده,36.454866947410224,52.248790526585324
7536,961,لاویج,36.35495110643483,52.03262329101562
7534,961,مرداب,36.51256667220116,52.09766411427985
9499,961,مرزنده,36.528271839799025,52.15665334924494
7858,961,مرکز شهر,36.47927592598906,52.11673736572265
9500,961,معصوم آباد,36.52413771055395,52.22318287805324
7533,961,مغان ده,36.53486127839594,52.12100012333024
7532,961,میرنا,36.43091411528678,52.21821275353631
7531,961,نانواکلا,36.524965881998504,52.1140874821328
7529,961,نعمت آباد,36.47692941277275,52.13613510131835
9491,961,واز تنگه,36.37143410130807,52.12810095034804
9490,961,واز سفلی,36.34174118850679,52.111961152886806
9489,961,واز علیا,36.32667332767586,52.1235608424213
9487,961,ورازده سفلی,36.46599652834559,52.178846942761176
9486,961,ورازده علیا,36.45320978871905,52.194745929116344
7526,961,ولیرکان,36.44553976561169,52.252143850089
7528,961,همصفا,36.41658583642464,52.24479675292968
9932,962,آغوزکله,36.7693910268175,50.83469673513715
8897,962,استخرسر,36.75456484757913,50.87167739868164
9931,962,اسدآباد,36.6937978175842,50.88260714275329
9934,962,اکبرآباد,36.77409455810781,50.88858003033603
9935,962,امام زمین,36.740188739911126,50.84222957267757
8887,962,امامزاده قاسم,36.60877587024167,50.70070266723633
9936,962,امیرآباد,36.46686711675158,52.245895920646305
9940,962,بالا اشتوج,36.6416507029518,50.75674476841548
8889,962,بالاس,36.66483888432675,50.77571868896484
8888,962,برسه,36.65451092836878,50.67220687866211
9942,962,برسیبور,36.756381136213406,50.901517605328735
9943,962,بهکله,36.75408546517006,50.906504897767995
9944,962,پایین اشتوج,36.647379503781714,50.76864306190692
9945,962,پرچین‌پشته,36.72683324955873,50.84154994571068
8899,962,پلهمدشت,36.79169061907076,50.87893009185791
10399,962,توساکله,36.74512531508117,50.90151665162288
10400,962,جل آخوند محله,36.77429117941686,50.811074620643005
10408,962,داربار,36.71654192979254,50.84283363917084
10409,962,درازلات,36.692576727893226,50.837498831849274
10410,962,درجان,36.43814985892145,50.87905352230535
10414,962,زمین بن,36.75649186842363,50.89196395877012
10415,962,سرن,36.444372642411075,50.86864113623017
10427,962,عسل محله,36.602738060312745,50.73004600501669
8891,962,قاشق تراش محله,36.72086109150479,50.88214874267578
10436,962,کراجوبکنار,36.7637719593287,50.85089762760137
8892,962,گلعلی اباد,36.69299273685176,50.8527946472168
8890,962,لتاک,36.730904982846475,50.84043502807617
8895,962,لشگرک,36.769623577602715,50.89768409729004
8893,962,لیره سر,36.641289122975834,50.921287536621094
8894,962,مازوبن سفلی,36.703590783484614,50.93493461608887
8898,962,مرزک,36.775948737451024,50.84155082702637
8900,962,مرکز شهر,36.77697996403403,50.86721420288086
8896,962,نعمت اباد,36.750576195564996,50.91819763183594
10789,962,هلوکله,36.6182618435286,50.7386704259002
8846,963,تازه آباد,36.69017093271122,53.612937927246094
8847,963,خلیل محله,36.680810060470264,53.638858795166016
8848,963,رکاوند,36.74218559555117,53.62907409667968
8844,963,رودباریخ کش,36.58541572959999,53.64632606506347
8843,963,غریب محله,36.572664587536934,53.67962837219238
8845,963,محمداباد,36.62613634723963,53.636112213134766
8849,963,مرکز شهر,36.703109085790025,53.6381721496582
10662,964,اتراچال,36.368299102905546,52.54447782022243
10665,964,ازارسی حاتم,36.341328035036646,52.56048002467919
10666,964,ازارکل,36.35531394477262,52.58769233115564
9978,964,بالابورا,36.35099353669666,52.56157633148056
9041,964,پاریکلا,36.373612514641444,52.59086608886719
9042,964,پطرودپی,36.38404712853451,52.561726570129395
10673,964,پنبه جار,36.35206604402735,52.598584264679275
10674,964,پولادسی,36.34522912372759,52.57737811964118
10676,964,تلیکا,36.307014531517964,52.56403310466906
10677,964,تیرنگ سی,36.32568671501535,52.54022231330498
10680,964,خرابه خوش رودپی,36.38579268439743,52.55472047986377
9037,964,دولت رودبار,36.339673067811546,52.57455825805664
9036,964,دیواملکشاه,36.30993797768211,52.54391670227051
9040,964,سفیدتور,36.35726674655988,52.59550094604492
9035,964,شیاده بالا,36.3260516557724,52.50383377075195
9034,964,فیل بند,36.23208902824811,52.50434875488281
9038,964,کاردیکلا,36.36359120361273,52.533016204833984
10686,964,کرات سی,36.21084995282402,53.01374179163048
10691,964,مجی کتی,36.34471741783283,52.607098036212804
9043,964,مرکز شهر,36.37468368186797,52.565460205078125
9039,964,مقریکلا,36.35543497722895,52.569580078125
10697,964,موزی کتی,36.35642562160755,52.57324746623991
9855,964,موسی محله,36.48824353466177,52.48251879225872
10699,964,میان بورا,36.358638079262974,52.568779161300164
9670,965,آهنگرکلا سفلی,36.59296193615303,52.48947328413115
9671,965,آهنگرکلا علیا,36.58929230431162,52.49302982675001
9656,965,ابدنگسر,36.5429051499139,52.45872561700143
9657,965,ابومحله,36.59161827792231,52.50389809531567
9658,965,اسپاهیکلا,36.53975995650399,52.472267189451856
9659,965,اسپیاربن,36.47684233635751,52.42263685878408
9661,965,اسپیاری,36.48279469653684,52.35979432280111
8913,965,اسلام اباد,36.578523481882634,52.43731498718262
9663,965,اشرف آباد,36.513060419945106,52.45475849572435
9664,965,اشکار کلا,36.55791173946039,52.43903159711211
9666,965,الو,36.50774589609994,52.40449850167971
8912,965,اوجاک,36.56873543291631,52.46589660644531
9673,965,بالا هشتل,36.48393487234384,52.42655546083543
8915,965,بامرکلا,36.5375708494039,52.486538887023926
8916,965,بانصرکلا,36.52815695047429,52.505292892456055
9726,965,بورمحله,36.50358463008927,52.40497906501854
8918,965,پاشاکلا ,36.513775266678834,52.436885833740234
9811,965,پایین هشتل,36.49908977285614,52.424245764340974
9812,965,پپین,36.56738609271,52.49962929396918
9816,965,پلهم کتی,36.508617743551596,52.49219834071675
9728,965,پیش محله,36.62869433320263,53.88419895260133
9823,965,ترویجان,36.57235696911178,52.439877676043466
9827,965,تنهاکلا,36.52127247357344,52.506689774299396
9829,965,جالیکلا,36.56570537761937,52.52338052510619
8921,965,چاره,36.481967427181836,52.42336750030517
10552,965,حسین آباد,36.51385716134618,52.463839410801825
9847,965,درزیکلا,36.5006004864792,52.411405522168266
9851,965,دعو کلا,36.50560942189431,52.44821801864158
9852,965,دنگپیا,36.51447359398282,52.479103876784805
9853,965,دوتیره,36.5785404613888,52.463300268811295
9854,965,دیه,36.503176572688645,52.48412275216423
9857,965,رفیع آباد,36.547031517922385,52.39133362227243
9872,965,رییس آباد,36.52756682210475,52.46757025635133
9877,965,زیارکلا,36.58205662125194,52.51529290790689
9880,965,سراج محله,36.62503332762246,52.92984369609534
10556,965,سنگر,36.57335075323029,52.50684588422343
9886,965,سورک,36.59651038644709,53.21054236305394
9888,965,شانه‌بند,36.537213414362874,52.47232530645856
9889,965,شاه کلا,36.19138634323481,52.69858349402407
9893,965,صورت کلا,36.57375013849891,52.49368428927942
9894,965,طوله کلا,36.4893343306106,52.401952558270445
10559,965,عظیم آباد,36.573855191486736,52.43843324611124
8910,965,غیاث کلا,36.57842009348276,52.50692367553711
9911,965,قائمیه,36.54809557555225,52.49697831168117
9912,965,قائمیه علیا,36.55808005959967,52.50169336539123
8911,965,قراکلا,36.55687782489325,52.502803802490234
8919,965,کاشی محله,36.4941125259715,52.469415664672844
9906,965,کبودکلا,36.57658755968384,52.485148200479635
9904,965,کچپ علیا,36.604457188024625,52.45773886309439
9905,965,کچپسفلی,36.611866323232604,52.46125802199562
9903,965,کچپکلوا,36.60069109879065,52.46713732339382
9917,965,کردخیل,36.494601122816036,52.43024610303299
10651,965,کرسی کلا سفلی,36.55768896928993,52.482237013869955
10652,965,کرسی کلا علیا,36.55478847148226,52.47984023539781
9921,965,کلیک‌سر,36.49791621246601,52.454370297248964
8920,965,گالش کلا,36.49556152992,52.40109443664551
10653,965,ماهوت کلا,36.53554504238823,52.443408231753395
8909,965,مرزنگو,36.58851704031733,52.482547760009766
8922,965,مرکز شهر,36.47648080656762,52.44748592376709
8908,965,مریج محله,36.61118728135568,52.459115982055664
9864,965,ممرز کتی,36.50122229878183,52.47188732854296
9861,965,موزی کتی سفلی,36.55214992710257,52.51858471390161
9858,965,موزی کتی علیا,36.546575619160954,52.512193783021274
8917,965,میانرود,36.51394772476463,52.47117519378662
9841,965,نائیج آباد,36.53127268954945,52.45148103518269
10656,965,ناصرآباد,36.48541931670241,52.4358963614113
9838,965,نرگس مرز,36.53393723502662,52.50406048666154
10659,965,نوآباد,36.58152448030585,52.426113781952104
10106,965,واسکس,36.5894823782752,52.47065811826056
9804,965,ولیک سفلی,36.566877428472324,52.42905627685695
9803,965,ولیک علیا,36.56687670611124,52.42142499433423
8914,965,یوسف اباد,36.542191171722756,52.44701385498047
10393,966,آسیاب سر,36.84411450367766,50.73636527718286
7609,966,ابریشم محله,36.91143594249934,50.64873218536377
7610,966,اربکله,36.8549005138863,50.6940078735351
10394,966,استل کنار,36.91026046449892,50.609336401564995
7842,966,اشکور,36.64307970866717,50.46844482421875
10875,966,بصل کوه,36.86361727749388,50.75942579841488
7613,966,بلوار طالقانی,36.92327321539877,50.65890312194824
7617,966,بلوار معلم,36.91078398133771,50.66697120666504
10392,966,پیازکش,36.86991609898962,50.70958007306267
10880,966,تازه پتک,36.94112738122245,50.61348693454385
10882,966,تمل,36.642532225827246,50.41964535070357
7841,966,جنت رودبار,36.78206714546697,50.50758361816406
7614,966,جواهرده,36.8557246457806,50.4852676391601
7615,966,چالکرود,36.871549958620115,50.766721163489116
7618,966,چهل شهیدان,36.82907321372808,50.71254730224609
7840,966,خیابان شهدا,36.931849801227095,50.650362968444824
8276,966,دالخانی,36.81862991458789,50.66963195800781
7619,966,دریاپشته,36.94982319419859,50.62285423278808
7620,966,دیسر,36.90831334110588,50.59770584106445
10391,966,راجوب,36.84887817240239,50.75163350008569
7621,966,رضی محله,36.93136953792501,50.64019203186035
7622,966,رمک,36.892389518074495,50.661821365356445
10383,966,سپارده,36.65473685901154,50.39598525082784
10382,966,سرلیماک,36.8572609679404,50.69465600786085
7624,966,سفید تمشک,36.95496746889377,50.59015274047851
10381,966,سیاسان,36.88971990838319,50.662912542042356
10380,966,شادمرادمحله,36.86047058639891,50.75103642633678
10379,966,شاه منصور محله,36.92488380637508,50.63610633020519
7627,966,طالش محله - چپرسر,36.88744696635248,50.67409515380859
10879,966,کانگسر,36.83227337405443,50.73877511870851
10378,966,کلیج کوه,36.88732333237376,50.65062949601089
10377,966,گاورمک,36.89788787265307,50.61439756179921
10376,966,گاولیماک,36.852550458589526,50.70622589252041
7631,966,لات محله,36.735390034516165,50.32717271316694
7632,966,لپاسرک,36.933496395289616,50.620107650756836
10375,966,لتر,36.82925260822515,50.70855202208889
10374,966,لوسر,36.85524479690573,50.73813429251848
7635,966,لیدو,36.92341044836754,50.66920280456543
10373,966,مازوباغسر,36.83870640541286,50.7223024994071
10372,966,میان لات,36.90463018924499,50.604152699387534
10371,966,یازن,36.637922932229266,50.40914661771661
8923,967,گرجی محله,36.65196315285816,53.41870307922363
8924,967,مرکز شهر,36.67709292755377,53.42754364013672
8734,968,خرم اباد,36.54446675137932,51.933746337890625
8737,968,سنگ نو,36.35329209802049,51.87040328979492
8735,968,کاسگرمحله,36.51763823569006,51.940269470214844
8736,968,لزیر,36.435922984119706,51.946964263916016
8732,968,مرکز شهر,36.56918350450596,51.974945068359375
8733,968,هندومرز,36.56053181671719,51.938209533691406
8753,969, بهرستاق,35.97828401175254,52.33139991760254
8748,969,آب اسک,35.84258637692823,52.207889556884766
8750,969,آب گرم لاریجان,35.91011669880413,52.19947814941406
10545,969,آهن سر,36.07436545108436,52.321807470996646
8749,969,امیر آباد,35.913522985137384,52.21767425537109
8752,969,بائیجان,35.981340087067565,52.14214324951172
8747,969,پلور,35.829226500872785,52.03193664550781
8755,969,پنجاب,36.06464195517141,52.3227310180664
8754,969,دلارستاق,36.044449341511815,52.17458724975586
10555,969,دیوران,36.10455333812521,52.06739789808276
10557,969,شنگلده,35.916198110626596,52.258190828238995
10558,969,عبدالمناف,36.08510549114652,52.14328376021053
10561,969,کندلو,35.886808788386205,52.20531621439607
8751,969,گرنا,35.92089118439153,52.03348159790039
8757,969,مرکز شهر,35.880913943701415,52.16578960418701
8756,969,نمارستاق,36.0982154447301,52.12841033935546
9008,970,امین آباد,36.4999083790973,52.55241394042969
9006,970,اندیکلا,36.47541104282962,52.5210428237915
9015,970,پیجا کلا,36.56004922392788,52.583656311035156
9012,970,دهک,36.518465989675875,52.617645263671875
9016,970,راه کلا,36.57955735826709,52.60957717895508
9007,970,شریعت کلا,36.49718300219408,52.51889705657958
9017,970,شریعت کلاکریم کلا,36.574318908626275,52.556447982788086
9018,970,قادیکلا,36.589619698542485,52.5831413269043
9014,970,کتی سر,36.542260129666175,52.6161003112793
9009,970,لاله آباد ,36.50922223422133,52.5791072845459
9013,970,مرزبال,36.53212265197782,52.58700370788574
9019,970,مرکز شهر,36.519673115032745,52.574729919433594
9010,970,میاندسته,36.52067329034796,52.54842281341553
9011,970,نودهک,36.54701807921958,52.54734992980956
8765,971,جمشید آباد,36.19226960024385,52.922000885009766
8763,971,جوارم,36.22350359582346,52.90586471557617
8768,971,عالیه کلا,36.16469576613993,53.00079345703125
8764,971,کارسالار,36.2049447642222,52.91564941406249
8766,971,کردآباد,36.178206771806984,52.939252853393555
8767,971,کنیج کلا,36.15700384567333,52.95264244079589
8769,971,مرکز شهر,36.17952310422473,52.973456382751465
4523,972,22بهمن,36.560363,53.026077
9154,972,آب انبار نو,36.56547415779569,53.061397047708255
9186,972,آب بندان سر,"",""
9187,972,آب بندان کش,36.53800147161672,53.11642889902389
9316,972,آبمال,36.71291830267107,53.09286806106436
9317,972,آخورسر,36.58416389818286,53.022249653213294
6120,972,آزاد گله,36.567366,53.094717
9318,972,آسیاب سر,36.53842998130653,53.095852650743765
9247,972,آغوزگله,36.158021760019984,53.54575544504876
9319,972,آق مشهد,36.35026271618893,53.13291648860854
9320,972,آهو دشت,36.43740315343075,53.17521600254643
6093,972,آهی دشت,36.52423901874124,53.06646390342677
9321,972,اتینی,36.12801168757831,53.559814211656104
9322,972,اجارستاق,36.29882011837253,53.22906572400788
9323,972,احمد آباد,36.444447654011604,53.29527616279524
9324,972,اخورد,36.41631655066843,53.369506882242106
9325,972,ارا,36.19124951275237,53.712420555552534
9326,972,اردشیر محله,36.63203402089977,53.107137625894865
9327,972,ارزفون,36.411637609658555,53.045242295785954
9328,972,ارست,36.34792098096894,53.7913958280155
9329,972,ارواخیل,36.64060627580439,53.07847253886698
9330,972,اروت,36.22211572700656,53.390405050830694
9331,972,اسبوکلا,36.539771972327244,53.20680986816532
7419,972,اسپورز,36.53355636835575,53.13841393207765
7213,972,استقلال,"",""
10416,972,اسرم,36.60724583616903,53.23939999641037
9180,972,اسفندان,36.72847016923819,53.118261614659026
9181,972,اسفیواشی,36.62322505808735,53.07834135775126
9182,972,اسلام ده,"",""
9183,972,افراچال,36.236731797875386,53.24139305781957
9506,972,افراسیاب کلا,36.53507349336909,52.058313340146185
9401,972,اقمشهدکمرخیل,36.346087389412205,53.12506012378894
9190,972,البرد,"",""
9184,972,الیرد,36.304956931675875,53.34493156731893
6117,972,امام حسین,36.567999,53.03199
7205,972,امام رضا,36.560876524,53.092288970
9158,972,امام زاده یحیی,36.56561189401322,53.055952756521506
9185,972,امامزاده خلیفه,"",""
9192,972,انگفام,36.179684052412625,53.353074412332184
9188,972,اوجا محله,36.60986071385562,53.074840295185155
9193,972,ایول,36.240254082293646,53.67725563774352
9194,972,باباکلا,36.32837220647889,53.495656207052946
9189,972,باریک آبسر,36.506780071205455,52.98793367862818
4514,972,بازار روز,36.565952389912454,53.05267902224639
4517,972,باقرآباد,36.56076082130916,53.054451975327396
9204,972,بالا سنگریزه,36.53543968072399,53.04938946240215
9197,972,بالا گلما,36.59815054941319,53.11098122558723
9199,972,بالا معلم کلا,"",""
9200,972,بالاآبدنگ,36.57485452634961,53.114102312896634
9202,972,بالادزا,36.51137418360801,53.07616820867857
9457,972,بخشی,"",""
4520,972,بربری محله,"",""
9207,972,برد,36.2020558898723,53.79614596531045
7165,972,بعثت,36.55646415455295,53.04568290710449
4586,972,بلوار آزادی,36.553555,53.048665
8543,972,بلوار امام هادی ,36.579178271866965,53.0658745765686
7965,972,بلوار امیرمازندرانی,36.56683971665926,53.047142028808594
7966,972,بلوار پاسداران,36.55212048227603,53.02971839904785
8037,972,بلوار خزر,36.578799183605504,53.060359954833984
9244,972,بلوار داراب,"",""
9208,972,بند افروز,36.530341940684764,53.156476028898865
9210,972,بندبن,36.099235847118806,53.51821559321103
9211,972,بهارآباد,"",""
9166,972,بهرام اتر,36.566214171649555,53.05696903518743
9213,972,پاچی,36.08552199901237,53.26721546596428
6108,972,پایین دزا,36.528930674618074,53.080323571985694
9216,972,پایین سمسکنده,36.574902243858325,53.14496022832632
9220,972,پایین سنگریزه,"",""
9153,972,پایین کولا,36.490934292685154,53.12432029988392
9238,972,پایین گلما,36.60840250576713,53.10836443875451
9217,972,پایین معلم‌کلا,"",""
9397,972,پرچیکلا,"",""
9223,972,پرچین کلا,"",""
9460,972,پشت آرامگاه,"",""
4526,972,پشت پرورشگاه,36.55887,53.07298
9246,972,پشت چیندکا,36.5592266689143,53.04345938705854
9163,972,پشت زندان,36.544246237464044,53.036523236460795
9164,972,پشت مصلی,36.56945476235211,53.06450577581533
9173,972,پشت هتل,"",""
9228,972,پشرت,36.25858784987802,53.79194309930539
4529,972,پل تجن,36.56497,53.08459
4534,972,پل گردن,36.5435,53.08113
9232,972,پنبه چوله بالا,36.72191100638585,53.122164699312975
9233,972,پنبه چوله پایین,36.733733902239706,53.13101095165288
9234,972,پنبه زارکتی,36.687195799837504,53.06115143792446
9243,972,پیام نور,"",""
9245,972,پیرتکیه,36.55186954708223,53.05791558554007
7177,972,پیروزی,36.56273791,53.07911396
4536,972,پیوندی,36.557813,53.068434
9240,972,تاجدین محله,36.7108107294876,53.00275829622257
9242,972,تازه آباد جهاد,36.627668439473474,53.136693077623576
9241,972,تازه آباد سپاه,36.82483525859763,53.16223442479971
9239,972,تالارک,36.67968472717025,53.00639327035285
9402,972,تپه سر,36.332132391762826,52.869223066769266
9237,972,تجنک سفلی,36.62971115206768,53.028622392152485
9236,972,تجنک علیا,36.618490327615014,53.034031021048705
4539,972,ترک محله,36.56282578630354,53.038579456900074
9235,972,ترم,36.47576917378883,53.08015202708329
9227,972,تلما دره,36.224429983328264,53.720905690134344
9226,972,تلو باغ,36.534377701412225,53.03965922709961
6930,972,تنگ لته,36.50135727,53.09649467
9465,972,تنگه سلیمان,36.239658896536056,53.248693069232644
4542,972,توکل,36.56056182397788,53.06861497229659
9225,972,تیر جاری,36.37227064582597,53.49345504241258
9224,972,تیرکلا,36.569605045227746,52.93964995971279
8252,972,جاده جویبار,36.574870341113865,52.98568725585937
4598,972,جاده فرح آباد,36.596544,53.066704
7820,972,جاده قائمشهر,36.5264671550152,52.9813957214355
8253,972,جام جم,36.55265483608312,53.04394483566284
9221,972,جره سر,36.762667891524096,53.060316569510796
9219,972,جعفر آباد,36.16791873750252,53.34257661361047
9218,972,جندین,36.70285710380954,53.136458407772146
5133,972,جوادیه,36.55154203504448,53.071917892876996
9215,972,جورجاده,36.10039015315847,53.25381197598157
9214,972,جیجاد,36.121436283428054,53.27231251787929
4546,972,چال مسجد,36.56190473392199,53.05615399231059
9209,972,چفت سر,36.638443785098666,53.093586631269986
9206,972,چمازک,36.65268043295415,53.0431712062123
9157,972,چنارین,"",""
9205,972,چورت,36.388178642674454,53.4637215932735
9169,972,چهار راه برق,36.56434258585301,53.059837602223325
9170,972,چیندکا,"",""
9172,972,حاجی آباد,36.592721549707235,52.996003827110265
9203,972,حاجیکلا,36.380191911263516,53.33914502589358
9201,972,حسین آباد,36.59334758889646,53.11150586541448
9198,972,حمید آباد,36.76680848480249,53.102952564574814
9196,972,خارخون,36.339629115805124,53.4451474837079
9195,972,خارکش,36.51463228755282,53.146092691099085
9291,972,خارمیان,36.64435953731105,53.030286703832445
9292,972,خال خیل,36.32040014247687,53.358272985735056
9293,972,خان عباسی,36.513149666323,53.09365542253083
9294,972,خانه سرمرز,36.71050206137777,53.03895724822707
10962,972,خرم آباد,36.61221636535683,53.023957548199135
9403,972,خلرد,36.213118439381184,53.52337620774542
9405,972,خنارآباد,36.50721997919619,52.99783495231964
9928,972,خیابان صبا,"",""
8254,972,خیابان ورزش,36.5599113397201,53.05055379867554
4553,972,خیام,36.56939344696689,53.06103238010578
9290,972,دادوکلا,36.14090128531791,53.200938668712475
9289,972,دازمیرکنده,36.73142715671209,53.06843255469915
9288,972,دامیر,36.61709511266074,53.06694679883547
6102,972,دانش,36.571640794382525,53.0690764092937
9458,972,دانشگاه ,"",""
6099,972,دخانیات,36.547076,53.054438
9287,972,دراز محله,36.62050728551568,53.054566776291544
7821,972,دودانگه,36.13510199,53.26171875
9286,972,دیم توران,36.594517854932654,53.070711752288446
9285,972,دینک,"",""
9284,972,ذغال چال,36.56615132892282,53.111919156087055
4556,972,راهبند,36.54571,53.06568
9283,972,رگن دشت,36.57656518680583,53.016891495082575
9280,972,رود پشت,36.53325790536773,53.015354154681965
9281,972,رودبار نقیب ده,36.3769461884964,53.28954951109441
9279,972,روشن کوه,36.38000625111945,53.364945821767854
9278,972,زرویجان,36.55822674671622,53.00210987559934
9277,972,زرین آباد سفلی,36.53174175798285,53.18633542031424
9455,972,زعفرانیه,"",""
9275,972,زلم,36.31453149601787,53.38687066108336
9274,972,زوار محله,36.628988631675135,53.02639022553045
4560,972,ساری کنار,"",""
9359,972,سالار دره,36.477131745806055,53.09201832295351
9273,972,سانخیل,36.48542868271589,53.13614459226325
4563,972,سبزه میدان,"",""
9272,972,سرخ ولیک,36.315119775201346,53.301502180458044
6096,972,سلمان فارسی,36.556808,53.079367
9270,972,سلوکلا,36.552004520389076,52.99023144583453
9269,972,سمندک,36.646344557768614,53.047718975530294
9268,972,سنته,36.6667865591121,53.037123172915315
9409,972,سنگ تراشان,36.48638311220495,53.075745074052655
9266,972,سنگ سر تنگه,"",""
9267,972,سنگده,"",""
9265,972,سوته,"",""
9264,972,سودکلا,"",""
9263,972,سوزنک,36.66659657396736,53.133510238219394
9262,972,سیاوش کلا,"",""
9459,972,سید الشهدا,"",""
9271,972,سیدآباد,36.63362568785072,53.08978445617534
9406,972,شب کلا,36.437569642830894,53.19585147422504
9261,972,شرفدارکلا سفلی,36.535154043781475,52.98741515286848
9260,972,شرفدارکلا علیا,36.54595389960607,52.99778337652042
5125,972,ششصد دستگاه,36.590194,53.065293
9259,972,شعبان خیل,"",""
9495,972,شکتا,36.4672104297186,53.07667598900928
9155,972,شکر آباد,36.56121686638456,53.05349075772334
9615,972,شمشیربند,36.57798738440664,53.05325055717089
6105,972,شهابی,36.563397,53.072992
4573,972,شهبند,36.569634,53.04578
9258,972,شهرک جانبازان,"",""
9257,972,شهرک صنعتی ساری,36.59375488612075,53.06313447456161
9256,972,شهرک فرهنگیان,36.52266004877625,53.00559249608945
9399,972,شهید رجایی,"",""
9400,972,شهید عبدی,"",""
9255,972,شیخ علی محله,"",""
9254,972,شیخ کلا,"",""
9253,972,شیرین بول,36.7692301204794,52.985415347966196
9252,972,شیشک,36.41048376350979,53.448001145027106
9251,972,صاحبی,36.684875159506696,53.143773344340694
9250,972,صالح آباد,"",""
9249,972,صفر آباد,36.625198898457164,53.06801043745483
9248,972,صلاح,"",""
9295,972,صلاح الدین محله,36.62186176890255,53.08909734781733
9407,972,صنایع چوب و کاغذ مازندران,36.46102706351564,53.099201070729585
5127,972,طالقانی,36.553823235166085,53.038862386436676
9296,972,طاهرآباد,36.773601963211,53.10130276008682
4579,972,طبرستان,36.57926,53.05771
9456,972,طبیعت,"",""
9297,972,طوقدار,36.7821459305752,53.03032673733206
9299,972,عالی کلا,"",""
9298,972,عالیواک,36.601592863079105,53.07006198882958
9300,972,عباسعلی کش,36.724016894815044,52.99845459179077
9614,972,عبوری,36.56421377612385,53.04713027739619
9302,972,عرب محله,"",""
9301,972,عربخیل,"",""
9303,972,عقه‌ خیل,"",""
9305,972,علی آباد,36.16985660217719,53.32959587459371
9306,972,علی کتی,"",""
4582,972,فدک,36.558912590204145,53.07008083258372
9463,972,فرح آباد جنوبی,36.791209049734405,53.11142624859007
10961,972,فرح آباد خیل,36.6039858980134,53.031048753428486
9485,972,فرح آباد شمالی,36.81045986012322,53.105801496416944
7183,972,فرهنگ,36.5623587478,53.0637288093
9307,972,فیروزکنده سفلی,36.64514551464372,53.07384606615614
9308,972,فیروزکنده علیا,36.638790996273954,53.07263971202639
9309,972,قاجارخیل,36.76517364716082,53.041468159894755
9311,972,قادیکلا,36.58519958313479,52.58755097451145
9704,972,قارن,36.564720389554445,53.066488403162815
9373,972,قلعه سر,36.25475139205259,53.2802729253361
9375,972,قورتی کلا,36.58086356493001,53.13915657850667
9314,972,کارنام,36.395290270209976,53.42306354609209
9315,972,کجرستاق,"",""
9332,972,کردخیل,36.712450573003416,53.10295226817097
9333,972,کردمیر,36.23844348879058,53.72752141966506
9334,972,کرسام,36.316818379005014,53.32956797457294
9335,972,کسوت,36.35393376000296,53.33293431685592
9336,972,کلاج خوسه,"",""
9337,972,کلاخیل,36.304733068466696,53.22903872739465
9338,972,کلاک,"",""
9339,972,کلکنار,36.22843604770449,53.69341147555766
9340,972,کلمهر,36.72983025752635,53.04423269641158
9341,972,کلیج کلا,36.15163798538864,53.21242502833145
7822,972,کلیجان رستاق,36.340571858947,53.160095214843
9461,972,کمربندی جنوبی,"",""
9398,972,کمربندی شرقی,"",""
7985,972,کمربندی غربی,36.56673631261619,53.03418159484862
9342,972,کندس بن,36.20167805778982,53.6205865845464
9343,972,کوات,36.277739082127695,53.81792694671061
9344,972,کوهی خیل,36.68714376740727,52.905743081646996
4590,972,کوی اصحاب,36.58367,53.04659
4594,972,کوی افشار,"",""
9161,972,کوی پزشکان,36.59548585360233,53.066453548250564
9174,972,کوی پنج تن,36.57233054100328,53.074852658496624
4607,972,کوی سنگ,36.56573545703146,53.07103717503003
9175,972,کوی شفا,36.589774309371116,53.05542069921001
8255,972,کوی قرق,36.581762914948875,53.049588203430176
5128,972,کوی قلیچ,36.56568409647935,53.06701087243236
5124,972,کوی کارمندان,36.554748,53.054217
9162,972,کوی گلها,35.774519230515985,51.00852907645468
9171,972,کوی لاله,36.5861877278018,53.0670314970026
5129,972,کوی ندا,"",""
7818,972,کیاسر,36.198849859544,53.519897460937
9345,972,گرجی پل,36.7771977822497,53.05124058399926
9346,972,گرجی کلا,36.54102157683431,53.01634336121372
9347,972,گردشی,36.340433276030254,53.18781851940486
9348,972,گرزمون,"",""
9349,972,گرم رود,36.44177922448509,53.156498200696966
9466,972,گرماب,"",""
9350,972,گرمستان,36.42449363870734,53.1550581768143
5132,972,گل افشان,36.563165620401854,53.043814701148
9352,972,گل باغ,36.160407144814236,53.50059057308604
9351,972,گل جاری,36.29140097744587,53.568838629774824
9353,972,گل چینی,36.54096964145316,53.055930279555916
9354,972,گل خواران,"",""
9355,972,گل نشین,36.68703645774491,53.0264143462692
9404,972,گل و بلبل,36.57515314638923,53.06047737080055
9357,972,گلورد,36.398547058639636,53.172523553408546
9361,972,گوگ باغ,"",""
9362,972,گوهرده,"",""
9408,972,گیله کلا علیا,36.49951148468075,52.99549424971057
9364,972,لارما,36.30558034849715,53.20909386870379
9160,972,لسانی,36.553551947924745,53.07151126141938
9366,972,لولت,36.27636844246625,53.1967878225498
9368,972,ماچک پشت,36.55877169195651,52.940926263982135
8087,972,مازیار,36.556739935025874,53.0570125579834
9369,972,مال خواست,36.32851502514968,53.868799236927394
9371,972,ماه فروجک,36.505246457910054,52.96903607682447
9356,972,ماه فروز محله سفلی,36.668636065108,53.08624489573198
9377,972,ماه فروز محله علیا,36.658309850848084,53.092816668153894
7418,972,مذکوره,36.5845886923,53.02362442016
9380,972,مرز رود,36.69148647140938,53.0944561563279
6111,972,مرکز شهر,36.565889,53.059965
9383,972,مزده,"",""
9385,972,مسکوپا,36.21509020132701,53.32080235805856
4620,972,معلم,36.57338835737425,53.066411018371575
9387,972,ملک آباد,36.644547931255524,53.14249345665367
7153,972,ملل,"",""
9222,972,ملیک,"",""
9388,972,موزی باغ,36.74633209986158,53.13628069647427
9389,972,موزی بن,36.60753135441231,53.08748884277401
7221,972,مهدشت,36.519799818897326,53.07607916133013
4623,972,مهدی آباد,"",""
4627,972,مهیار,36.57108,53.0771
9390,972,میانا,36.07364897960007,53.26926280320884
7819,972,میاندرود,36.5339157719865,53.1611251831054
9310,972,میانرود,36.53797620347757,53.05492546090975
9391,972,میانشعار,"",""
9392,972,میدانک,36.302847834085775,53.24113007104356
9165,972,میر سرروضه,36.56037831011389,53.06181442078631
4630,972,میرزمانی,36.557515727257275,53.06548898424535
9393,972,نبی آباد,"",""
9394,972,نرگس زمین,36.23421242535267,53.37788901311722
9168,972,نعلبندان,36.563005083156966,53.0546619369282
9156,972,نو تکیه,36.56755826470788,53.06134966227051
9396,972,نهضت,36.55706798070276,53.04185113507448
9386,972,وارد محله,36.49193509163011,53.12882422189052
9384,972,واستان,36.33642274301969,53.15763410352026
9382,972,ورکی,36.29296047512432,53.15100533984694
9381,972,ورمزآباد,36.15144368632273,53.318122202015886
9379,972,ورنام,36.480551692357096,53.891863157284135
9378,972,ورند,36.36383230874379,53.204898955902856
9376,972,وزملا,36.07942086404411,53.187067780202106
9927,972,وصال شیرازی,"",""
9374,972,ولشکلا,36.651242023795525,53.11008856651992
9372,972,ولویه سفلی,36.21084767907891,53.72956046144529
9370,972,ولویه علیا,36.21396984812069,53.720203342048386
9367,972,ولی آباد,36.77983228209075,50.9376813045774
9365,972,ولیک بن,36.10852191497441,53.210875545972435
9363,972,ولیک چال,36.09756934697137,53.21721081556071
9360,972,وناجم,36.355041051720335,53.40392729903858
6123,972,هولا - ذغالچال,36.565364,53.119344
9358,972,یادمان,36.5809878236828,53.08230029348383
9778,973,ابوالحسن آباد,36.61759980158246,52.397476732459495
10947,973,احمد آباد کلیج سفلی,36.61795734442379,52.41798179580377
10504,973,احمدآباد کیج علیا,36.61150190870783,52.41772591176763
10948,973,اردوگاه نیروی هوایی,36.66000844249237,52.373179846744286
9780,973,اسکنده,36.59497133603817,52.35908115408592
8730,973,اسلام محله,36.60250584848267,52.42040634155273
9902,973,افرا سرا,"",""
10949,973,افراتخت,36.575739910440404,52.366408939352745
9395,973,بلوار دریا,36.680550589482245,52.46942009516755
8727,973,بیشه کلا,36.65051708060764,52.36504554748535
8762,973,چاک سر,36.67062193440137,52.430877685546875
8725,973,حاجی کلا,36.64721167063527,52.42401123046875
8465,973,خانه دریا,36.662979954514235,52.39800453186035
8463,973,درویش آباد,36.66869429932853,52.42074966430663
8726,973,دریاسر,36.650172773688304,52.340712547302246
8729,973,رودپشت,36.62096994719122,52.352943420410156
8731,973,زرداب,36.58741436633867,52.38049507141113
8728,973,سیاه کلا,36.630958008194106,52.39053726196289
9776,973,سیرجارون,36.60767629792875,52.43770447275783
9772,973,علمده شرقی,36.65018863874033,52.375553230331796
9773,973,علمده غربی,36.64778186311505,52.37119867537667
9771,973,علویکلامیر,36.597694298947566,52.412054630803
9770,973,علی آباد,36.60891033640457,52.36586117826811
9769,973,فرامده,36.57800619068995,52.37997053134753
9767,973,کلمرز علیا,36.63991406990877,52.354011045267285
9766,973,کلوسا,36.56350575074223,52.373744852505496
9765,973,کنس مرز,36.577227460592326,52.40002207037418
9764,973,گل محله,36.62369970243681,52.44243263337004
8464,973,مرکز شهر,36.67454589945358,52.45177745819092
9759,973,میرده  علیا,36.57420893796528,52.403988634797834
9760,973,میرده سفلی,36.57545676419763,52.41125922341246
9757,973,وازیک,36.585383194553366,52.36725869271745
8724,973,وزرامحله,36.65368463203463,52.45413780212402
9756,973,ولم علیا,36.56371964275541,52.38502227806579
7971,974,آزادگان,36.69918657789973,51.20899200439453
7845,974,اسبچین,36.71202000443334,51.15195751190185
10783,974,افراسی,36.25244423919413,52.77522636148165
7847,974,تازه آباد,36.71040304188368,51.17053985595703
7848,974,تیلاکنار,36.67103499277765,51.19843482971191
7968,974,جمشیدآباد,36.712192019723304,51.18959426879883
7946,974,جیسا,36.67289372803235,51.15912437438965
7970,974,خیابان آرا,36.702145681344014,51.18985176086426
7849,974,دانیال,36.678125482491645,51.185646057128906
7969,974,دریاگوشه,36.70365959719456,51.198177337646484
7945,974,سلامت سرا,36.71546023706223,51.16058349609375
7947,974,سی سرا,36.6925109727439,51.2263298034668
7973,974,شمس آباد,36.70455416981694,51.21199607849121
7972,974,شهرک توسکا,36.70476060817419,51.18410110473633
7974,974,قشقایی,36.70902687674069,51.18573188781738
7846,974,کراتکوتی,36.70620566114866,51.17674112319945
7850,974,گرجی سرا,36.69849839798166,51.17809295654297
7844,974,مرکز شهر,36.69048064798094,51.200194358825684
10863,974,ملرد,35.95353939435423,53.095296153578786
8856,975,اوسا,36.54550108362575,53.259830474853516
8858,975,بادله,36.57004517333383,53.20361137390137
10764,975,برجی خیل,36.609567787397104,52.766840488782975
8857,975,پیله کوه,36.57225100172715,53.280601501464844
8859,975,جامخانه,36.60422843270995,53.24420928955078
8855,975,جناسم,36.46781874690112,53.348751068115234
8860,975,شهریارکنده,36.62889161900864,53.200950622558594
8861,975,مرکز شهر,36.59664877438577,53.20833206176758
8797,976,آهنگرکلا,36.33331209565581,52.8358268737793
8796,976,چالی,36.27278776141294,52.92457580566406
8795,976,شیرجه کلا,36.26918940825046,52.8523063659668
8798,976,مرکز شهر,36.30087689327335,52.881832122802734
8852,977,برامسر,36.83264559412652,50.81048011779785
8853,977,لپاسر,36.8413697450032,50.81970691680908
8854,977,مرکز شهر,36.84676173431244,50.795631408691406
8851,977,میاندج محله,36.85991384551566,50.77709197998047
8850,977,همت آباد,36.847688980781555,50.768980979919434
9630,978,امام دشت,36.714848614483024,51.06720635087291
7903,978,امرجکلا,36.72041390141615,51.12972736358642
9631,978,بااوج خیل,36.69881800649234,51.11440008210872
10921,978,بارفکلا,36.50657121422323,52.80463258530089
7897,978,بورایش,36.7147378009882,51.0871124267578
7904,978,پرچور,36.68376014082485,51.086096132267784
7898,978,پسنده سفلی,36.69209802967761,51.06247901916504
7949,978,پسنده علیا,36.71246724338626,51.07715606689453
9632,978,پلنگ کلا,36.70205454077934,51.09148618900476
10503,978,تیلورسر,36.69848344096295,51.21684296282224
10915,978,حیدرآباد,36.70912915863388,51.12599306637283
10916,978,خشکلا,36.68782714264848,51.15558425253962
10917,978,خضرآباد,36.67540278711476,51.15553503218745
7948,978,خیابان شهدا,36.67585384333481,51.10256195068359
9634,978,دراسرا,36.62372111026005,51.10757234638077
9635,978,زیارت ور,36.70169777970064,51.11006423706124
9636,978,سجادیه,36.7022995565783,51.12734348538693
9620,978,سرتاکرات,36.70194618336014,51.073418131937366
9637,978,سرلنگا,36.68072635946354,51.104589210335824
9621,978,سی بن,36.68572619441823,51.0548319920826
7902,978,سیدمحله,36.69904894240897,51.1138916015625
9622,978,شجاع محله,36.69309588872625,51.11028673090591
9638,978,شهرک صنعتی,36.67470965872771,51.16794247011745
9639,978,طالش خیل,36.6961656671871,51.14194821033632
9640,978,کاظم کلا,36.695607441764885,51.09045978422926
7896,978,کرکاس,36.71508181901356,51.13912582397461
9641,978,کلاکرده,36.682100377275916,51.1032914542256
7899,978,کورکلا,36.71318970081092,51.09659671783447
9651,978,گرداب,36.676475327045566,51.11243997092247
9654,978,گلدشت,36.71144237563972,51.148433470986085
9652,978,ماشل آباد,36.67622378699091,51.10430657241797
7901,978,محمد حسین آباد,36.7195539131588,51.1188268661499
7895,978,مرکز شهر,36.72264982582376,51.10393524169922
7905,978,ولیکستان,36.69173488592711,51.06263627287644
9653,978,هردوابرود,36.67387636488259,51.09825315303332
8745,979, خزرشهر,36.691409786305364,52.56764888763428
8739,979,اسبوکلا,36.604297335278915,52.520999908447266
8744,979,اسلام آباد,36.66779930948836,52.57206916809082
9446,979,اوکسر کریم کلا,36.68121222505146,52.74860956957554
9448,979,بی نمد,36.59597042465449,52.51591670031578
9452,979,جزین,36.602082404342696,52.529655389407885
9453,979,حیدر کلا,36.62282960034815,52.548498927962
8738,979,سوته,36.630200338592886,52.54314422607422
9454,979,شهرک فرزاد شهر,36.67689711363962,52.482846313642995
8742,979,شیرا,36.66752392590507,52.48872756958008
9451,979,طوله سرا,36.597548147692585,52.51888914803223
8743,979,فیروز آباد,36.67082846386668,52.537307739257805
8740,979,کاردگرمحله,36.6233809769723,52.48881340026855
9152,979,کمربندی فریدونکنار,36.6857976565,52.5581128455
9449,979,کوچک بیشه محله,36.610224455709194,52.492904818407794
8746,979,مرکز شهر,36.68432052107744,52.520527839660645
9619,979,مشهدی سرا,36.70594502086144,51.113672143755046
9447,979,ملاکلا,36.61756427334583,52.55347235488618
9445,979,منقارپی,36.611912584722404,52.51658755062078
8741,979,مهلبان,36.651343410933116,52.504777908325195
9444,979,نوائی محله,36.61675281835521,52.489104579775855
9191,980,امام زاده علی,36.187576462961154,53.29172732158021
8944,980,امامزاده علی,36.192338869011174,53.28901290893555
8947,980,تلاوک,36.194416903538226,53.22652816772461
8948,980,رسکت علیا,36.155617833818525,53.185672760009766
8943,980,علی اباد,36.163656361530464,53.34840774536132
8949,980,قارن سرا,36.205637336998635,53.16335678100586
8942,980,کرسب,36.20882309283712,53.32901000976562
8946,980,مجی,36.15035076533756,53.24729919433594
8950,980,مرکز شهر,36.17775644248149,53.26493740081787
8945,980,ورمزاباد,36.1543704022021,53.29690933227539
8039,981,16 متری,36.470027491510045,52.846384048461914
10455,981,آبمال,36.4518378870633,52.89076931597774
10456,981,آسیاب‌ سر,36.50371262820993,52.7927036126321
8410,981,آهنگر کلا,36.4315034892636,52.92715072631835
10454,981,ابجر,36.557411134310904,52.907645677699946
7644,981,ارطه,36.4944575293706,52.9401969909667
10920,981,استراباد محله,36.51009850448775,52.79567133628663
10457,981,افرا,36.43657265896288,52.815249595933274
10458,981,افراپل,36.545543260766195,52.928738468392076
10459,981,اوجابندان,36.528113717043304,52.880812770212245
10460,981,اوجی تالار,36.516120235482745,52.78279423266616
10461,981,بالا افراکتی,36.47998242293852,52.91703337239743
10462,981,بالا رستم حاجی,36.51143958643724,52.80896751539612
7675,981,بالاتجن,36.41161264860837,52.78690338134765
10922,981,بایکلا,32.846315721887315,49.69356355123538
7967,981,بهشتی محله,36.45553145640271,52.86792755126953
7927,981,بیشه سر,36.46809484341892,52.93590545654297
10463,981,پاشا کلا,36.40387142871102,52.76662508805942
10464,981,پاشاکلاافراکتی,36.483581833867426,52.915562947114054
10465,981,پایین افراکتی,36.48347693737506,52.91644343290998
10466,981,پایین جاده,36.557368872808034,52.92397508153249
8083,981,پل هوایی,36.461330195662875,52.85702705383301
10467,981,تالارپشت علیا,36.40895292967882,52.84458152926021
7649,981,ترک محله,36.46215855158897,52.86870002746582
10468,981,ترکمن خیل,36.45375019408424,52.79479242529295
10470,981,تیل خانی,36.412362031246374,52.78035370999044
7651,981,جاده ساری,36.50204721530844,52.92612075805664
7652,981,جاده کیاکلا,36.4910074262199,52.8251838684082
7653,981,جاده نظامی,36.43592298411970,52.82672882080078
7654,981,جمنان,36.45829281489,52.87998676300
8411,981,چپی,36.434956241122485,52.949981689453125
10478,981,چفت سر,36.515999789796254,52.85836824561858
10479,981,چفت کلا,36.43143928072445,52.81884056616775
7657,981,چمازکتی,36.48783319558793,52.87307739257812
10480,981,حاجی کلا,36.45492543439893,52.819647979804536
10481,981,حاجی‌کلا ارزلو,36.39631086710006,52.79024036640889
10933,981,خمیرکنده,36.5003003151297,52.874963517516036
7659,981,خیابان بابل,36.469751401875634,52.840118408203125
7660,981,خیابان تهران,36.44572783973533,52.84913063049316
7662,981,خیابان جویبار,36.47420322731343,52.86440849304199
7661,981,خیابان ساری,36.47692941277275,52.88990020751953
7664,981,خیابان کفشگرکلا,36.45829281489,52.83857345581
8040,981,خیابان کوچکسرا,36.47078673293422,52.8537654876709
10484,981,دنج کلا,36.43721477091209,52.86224325273126
10485,981,دوک,36.53255279640063,52.85037528286497
10487,981,دیوکلا علیا,36.499977015424875,52.83119210629784
10489,981,ذیلت,36.528984281202895,52.86432265156926
10490,981,رکابدارکلا,36.530958437642795,52.90165904506044
10491,981,رنگریزکلا‎,36.41949359841963,52.8145234442232
10492,981,ریکنده,36.45119897897052,52.9734777977056
10494,981,زاهد کلا,36.59134326897598,52.544316714046246
10496,981,سنگ کتی,36.48964868050138,52.796139704331786
10497,981,سوخته کلا,36.43462157543298,52.82566383072557
10498,981,سیدابوصالح,36.4367083001878,53.009204854992404
10499,981,سیف کتی,36.43874535711742,52.98794035768867
10923,981,شامیکلا,32.833814066281036,49.65385931331007
10500,981,شیخ رجه,36.463746131910135,52.93075566470379
10501,981,صنم,36.397679579661954,52.803608126399475
10482,981,صنم حاجی کلا,36.40741563430842,52.79515520829101
10502,981,طارسی کلا,36.4311141084185,52.78100249098416
10495,981,فندری,36.449018183153065,52.7980465758742
10925,981,فندری نماورکلا,36.447310672353765,52.79044928411176
7926,981,فولادکلا,36.44517548643602,52.88715362548828
8041,981,قائم محله,36.46022570732912,52.854108810424805
7681,981,قادیکلا,36.42321625818444,52.94294357299804
10493,981,قلزم کلا,36.46040966200591,52.81795298638986
10928,981,کاردگر خطیر,36.441288058467094,52.77585184681764
10488,981,کاسگرکلا,36.50832201257057,52.898713955405235
10486,981,کرچنگ,36.44905897775738,52.94253581799043
10483,981,کروا,36.5045647139614,52.85642634939691
10469,981,کشکا,36.41558227846704,52.82759055415406
10453,981,کلاردره,36.40729768015785,52.81433625911817
10931,981,کمانگرکلا,36.40185585506768,52.78277963077146
7686,981,کوچکسرا,36.4723742136993,52.8524780273437
7669,981,کوهساران,36.451251156443426,52.949466705322266
10452,981,گزنه کلا,36.490735035888235,52.785008261569
7643,981,گل افشان,36.424726114104466,52.94470492863347
10451,981,گیله کلا,36.535776284599095,52.92826783281528
10450,981,لهرم تلوک,36.46369425325568,52.919190614972635
10449,981,لهمال,36.51531244837308,52.9043267756954
10448,981,مچه بن,36.38964153594716,52.85546760549712
7682,981,مطهری محله,36.44928351995953,52.86848545074463
10446,981,ملک خیل,36.415815051758706,52.77113206903081
10442,981,موارم کلا,36.54498603800474,52.90854075777241
10444,981,مهدی آباد,36.476387234039876,52.939005629136
7690,981,مهمانسرا,36.47610121467339,52.8751802444458
10435,981,میانرود,36.44507552823631,52.89801353365619
9304,981,میدان امام,"",""
10932,981,میکلا,36.40677614419292,52.75757713810643
10432,981,نوده,36.513197118808975,52.88085157356739
10431,981,نوکلا,36.41126674424803,52.8159689700947
7650,981,نوکنده کا,36.519431691467936,52.892131805419915
9802,981,نوگیری,36.3993202342772,52.80884043147861
8082,981,نیما,36.48051816892598,52.87736892700195
7691,981,واسکس,36.40429043154902,52.86397933959961
9800,981,واکی کلا,36.453531656022804,52.76077850088231
7692,981,وسطی کلا,36.417829083625676,52.886810302734375
9799,981,ولوند,36.524057539779164,52.7843022774187
9801,981,هردورود,36.48826125607395,52.85641722050686
8904,982,اربه گله,36.86437749416764,50.67521095275879
8901,982,جلو,36.811071375011274,50.66903114318848
8905,982,شستا,36.85321788367793,50.732717514038086
8906,982,کلایه بن,36.86753622642931,50.75752258300781
8902,982,گالش محله,36.829897624010734,50.71812629699707
8903,982,لرسانور,36.83704214099502,50.68551063537598
8907,982,مرکز شهر,36.8849069194645,50.70868492126465
9633,983,تیلورسر,36.69789587356912,51.21664164581415
7891,983,جیسا,36.6644257926927,51.2457275390625
7892,983,چارز,36.66504542931232,51.21929168701172
10918,983,گلوربالا,36.69183977279418,51.230876638167146
